[
	{
		"name": "Kita Ahlfeldstraße  2",
		"daycare_type": "Kita",
		"zipcode": "04177",
		"address": "Ahlfeldstraße  2",
		"latitude": "51.3424227",
		"longitude": "12.3227367",
		"district": "Alt-West"
	},
	{
		"name": "Kita Alte Straße 2",
		"daycare_type": "Kita",
		"zipcode": "",
		"address": "Alte Straße 2",
		"latitude": "51.3316",
		"longitude": "12.34192",
		"district": "Südwest"
	},
	{
		"name": "Kita Alte Thekalerstr. 13a",
		"daycare_type": "Kita",
		"zipcode": "",
		"address": "Alte Thekalerstr. 13a",
		"latitude": "51.37855",
		"longitude": "12.43344",
		"district": "Nordost"
	},
	{
		"name": "Kita Altenburger Str.  3",
		"daycare_type": "Kita",
		"zipcode": "",
		"address": "Altenburger Str.  3",
		"latitude": "51.31795",
		"longitude": "12.38368",
		"district": "Süd"
	},
	{
		"name": "Kita Althener Anger  18",
		"daycare_type": "Kita",
		"zipcode": "",
		"address": "Althener Anger  18",
		"latitude": "51.33971",
		"longitude": "12.51926",
		"district": "Ost"
	},
	{
		"name": "Kita Althener Straße 18",
		"daycare_type": "Kita",
		"zipcode": "",
		"address": "Althener Straße 18",
		"latitude": "51.33368",
		"longitude": "12.48493",
		"district": "Ost"
	},
	{
		"name": "Kita Am Hohlweg 2",
		"daycare_type": "Kita",
		"zipcode": "04159",
		"address": "Am Hohlweg 2",
		"latitude": "51.3809395",
		"longitude": "12.3057261",
		"district": "Nordwest"
	},
	{
		"name": "Kita Am Kirschberg 39",
		"daycare_type": "Kita",
		"zipcode": "",
		"address": "Am Kirschberg 39",
		"latitude": "51.31854",
		"longitude": "12.28225",
		"district": "West"
	},
	{
		"name": "Kita Am Kirschberg  37",
		"daycare_type": "Kita",
		"zipcode": "",
		"address": "Am Kirschberg  37",
		"latitude": "51.319375",
		"longitude": "12.2821814",
		"district": "West"
	},
	{
		"name": "Kita Am Langen Felde 29",
		"daycare_type": "Kita",
		"zipcode": "04179",
		"address": "Am Langen Felde 29",
		"latitude": "51.34311695",
		"longitude": "12.3151594672",
		"district": "Alt-West"
	},
	{
		"name": "Kita Am langen Felde  8",
		"daycare_type": "Kita",
		"zipcode": "04179",
		"address": "Am langen Felde  8",
		"latitude": "51.3454275",
		"longitude": "12.3162495708",
		"district": "Alt-West"
	},
	{
		"name": "Kita An der Hauptstraße 40 a",
		"daycare_type": "Kita",
		"zipcode": "04356",
		"address": "An der Hauptstraße 40 a",
		"latitude": "51.42038475",
		"longitude": "12.4447162203",
		"district": "Nord"
	},
	{
		"name": "Kita An der Lehde 12",
		"daycare_type": "Kita",
		"zipcode": "04179",
		"address": "An der Lehde 12",
		"latitude": "51.3459457",
		"longitude": "12.3218422",
		"district": "Alt-West"
	},
	{
		"name": "Kita An der Lehde 14",
		"daycare_type": "Kita",
		"zipcode": "04179",
		"address": "An der Lehde 14",
		"latitude": "51.3459457",
		"longitude": "12.3218422",
		"district": "Alt-West"
	},
	{
		"name": "Kita An der Märchenwiese 3",
		"daycare_type": "Kita",
		"zipcode": "04277",
		"address": "An der Märchenwiese 3",
		"latitude": "51.3056379",
		"longitude": "12.3921473142",
		"district": "Süd"
	},
	{
		"name": "Kita An der Querbreite 4",
		"daycare_type": "Kita",
		"zipcode": "04129",
		"address": "An der Querbreite 4",
		"latitude": "51.3713749",
		"longitude": "12.388607",
		"district": "Nord"
	},
	{
		"name": "Kita An der Schule 1",
		"daycare_type": "Kita",
		"zipcode": "04828",
		"address": "An der Schule 1",
		"latitude": "51.3578873",
		"longitude": "12.7128147698",
		"district": "Nordwest"
	},
	{
		"name": "Kita An der Tabaksmühle 30",
		"daycare_type": "Kita",
		"zipcode": "04277",
		"address": "An der Tabaksmühle 30",
		"latitude": "51.31113765",
		"longitude": "12.4001930194",
		"district": "Süd"
	},
	{
		"name": "Kita An der Teichmühle 2",
		"daycare_type": "Kita",
		"zipcode": "04178",
		"address": "An der Teichmühle 2",
		"latitude": "51.3407627",
		"longitude": "12.2517003",
		"district": "Alt-West"
	},
	{
		"name": "Kita Arthur-Nagel-Straße 1 a/b",
		"daycare_type": "Kita",
		"zipcode": "",
		"address": "Arthur-Nagel-Straße 1 a/b",
		"latitude": "51.307364",
		"longitude": "12.3238704",
		"district": "Südwest"
	},
	{
		"name": "Kita Auenstraße 10",
		"daycare_type": "Kita",
		"zipcode": "",
		"address": "Auenstraße 10",
		"latitude": "51.35897",
		"longitude": "12.2978",
		"district": "Alt-West"
	},
	{
		"name": "Kita Bästleinstraße 18",
		"daycare_type": "Kita",
		"zipcode": "04347",
		"address": "Bästleinstraße 18",
		"latitude": "51.35505135",
		"longitude": "12.4290056769",
		"district": "Nordost"
	},
	{
		"name": "Kita Bernburger Straße 22",
		"daycare_type": "Kita",
		"zipcode": "04129",
		"address": "Bernburger Straße 22",
		"latitude": "51.3643375",
		"longitude": "12.3920937",
		"district": "Nord"
	},
	{
		"name": "Kita Bertolt-Brecht-Straße 11",
		"daycare_type": "Kita",
		"zipcode": "04347",
		"address": "Bertolt-Brecht-Straße 11",
		"latitude": "51.3579502",
		"longitude": "12.4279568",
		"district": "Nordost"
	},
	{
		"name": "Kita Biedermannstraße 23",
		"daycare_type": "Kita",
		"zipcode": "04277",
		"address": "Biedermannstraße 23",
		"latitude": "51.3076935",
		"longitude": "12.3760840062",
		"district": "Süd"
	},
	{
		"name": "Kita Bisamstraße 17",
		"daycare_type": "Kita",
		"zipcode": "04329",
		"address": "Bisamstraße 17",
		"latitude": "51.3561142",
		"longitude": "12.4718236",
		"district": "Ost"
	},
	{
		"name": "Kita Bockstraße 8",
		"daycare_type": "Kita",
		"zipcode": "04289",
		"address": "Bockstraße 8",
		"latitude": "51.305144",
		"longitude": "12.4265767",
		"district": "Südost"
	},
	{
		"name": "Kita Bornaische Straße 184",
		"daycare_type": "Kita",
		"zipcode": "04279",
		"address": "Bornaische Straße 184",
		"latitude": "51.2880063",
		"longitude": "12.3915553782",
		"district": "Süd"
	},
	{
		"name": "Kita Bornaische Straße 138",
		"daycare_type": "Kita",
		"zipcode": "04279",
		"address": "Bornaische Straße 138",
		"latitude": "51.29346285",
		"longitude": "12.38505775",
		"district": "Süd"
	},
	{
		"name": "Kita Bornaische Straße  186 c",
		"daycare_type": "Kita",
		"zipcode": "",
		"address": "Bornaische Straße  186 c",
		"latitude": "51.28663",
		"longitude": "12.39211",
		"district": "Süd"
	},
	{
		"name": "Kita Bothestraße 17/19",
		"daycare_type": "Kita",
		"zipcode": "04155",
		"address": "Bothestraße 17/19",
		"latitude": "51.3637611",
		"longitude": "12.3540357",
		"district": "Nord"
	},
	{
		"name": "Kita Brandiser Straße 20",
		"daycare_type": "Kita",
		"zipcode": "",
		"address": "Brandiser Straße 20",
		"latitude": "51.32294",
		"longitude": "12.47453",
		"district": "Ost"
	},
	{
		"name": "Kita Breisgaustraße 21 a",
		"daycare_type": "Kita",
		"zipcode": "",
		"address": "Breisgaustraße 21 a",
		"latitude": "51.31778",
		"longitude": "12.29273",
		"district": "West"
	},
	{
		"name": "Kita Bremer Straße 17",
		"daycare_type": "Kita",
		"zipcode": "04157",
		"address": "Bremer Straße 17",
		"latitude": "51.3770222",
		"longitude": "12.3648737",
		"district": "Nord"
	},
	{
		"name": "Kita Bremer Weg 17",
		"daycare_type": "Kita",
		"zipcode": "04148",
		"address": "Bremer Weg 17",
		"latitude": "51.3838721",
		"longitude": "12.3626263",
		"district": "Nord"
	},
	{
		"name": "Kita Coppistraße 19",
		"daycare_type": "Kita",
		"zipcode": "",
		"address": "Coppistraße 19",
		"latitude": "51.36586",
		"longitude": "12.38138",
		"district": "Nord"
	},
	{
		"name": "Kita Dahlienstraße 75",
		"daycare_type": "Kita",
		"zipcode": "04209",
		"address": "Dahlienstraße 75",
		"latitude": "51.324275",
		"longitude": "12.3044138",
		"district": "West"
	},
	{
		"name": "Kita Delitzscher Str. 141",
		"daycare_type": "Kita",
		"zipcode": "",
		"address": "Delitzscher Str. 141",
		"latitude": "51.38466",
		"longitude": "12.3788",
		"district": "Nord"
	},
	{
		"name": "Kita Demmeringstraße 35",
		"daycare_type": "Kita",
		"zipcode": "",
		"address": "Demmeringstraße 35",
		"latitude": "51.337",
		"longitude": "12.33009",
		"district": "Alt-West"
	},
	{
		"name": "Kita Demmeringstraße  18",
		"daycare_type": "Kita",
		"zipcode": "04177",
		"address": "Demmeringstraße  18",
		"latitude": "51.3384143",
		"longitude": "12.3342568",
		"district": "Alt-West"
	},
	{
		"name": "Kita Demmeringstraße 125",
		"daycare_type": "Kita",
		"zipcode": "04179",
		"address": "Demmeringstraße 125",
		"latitude": "51.3331326",
		"longitude": "12.3191712769",
		"district": "Alt-West"
	},
	{
		"name": "Kita Diderotstraße 13",
		"daycare_type": "Kita",
		"zipcode": "04159",
		"address": "Diderotstraße 13",
		"latitude": "51.3706541",
		"longitude": "12.3465480445",
		"district": "Nordwest"
	},
	{
		"name": "Kita Diezmannstraße 87a",
		"daycare_type": "Kita",
		"zipcode": "04207",
		"address": "Diezmannstraße 87a",
		"latitude": "51.3137728",
		"longitude": "12.31070785",
		"district": "Südwest"
	},
	{
		"name": "Kita Dölling Straße  21",
		"daycare_type": "Kita",
		"zipcode": "",
		"address": "Dölling Straße  21",
		"latitude": "51.3482",
		"longitude": "12.44851",
		"district": "Ost"
	},
	{
		"name": "Kita Dorfstraße 41",
		"daycare_type": "Kita",
		"zipcode": "04808",
		"address": "Dorfstraße 41",
		"latitude": "51.32999965",
		"longitude": "12.8566232691",
		"district": "Ost"
	},
	{
		"name": "Kita Eduard-von-Hartmann-Straße 29/31",
		"daycare_type": "Kita",
		"zipcode": "04157",
		"address": "Eduard-von-Hartmann-Straße 29/31",
		"latitude": "51.3705252",
		"longitude": "12.3796391",
		"district": "Nord"
	},
	{
		"name": "Kita Eichlerstraße  10",
		"daycare_type": "Kita",
		"zipcode": "04317",
		"address": "Eichlerstraße  10",
		"latitude": "51.3279214",
		"longitude": "12.4013038",
		"district": "Südost"
	},
	{
		"name": "Kita Eisenacher Straße 38",
		"daycare_type": "Kita",
		"zipcode": "04155",
		"address": "Eisenacher Straße 38",
		"latitude": "51.3614942",
		"longitude": "12.3643732188",
		"district": "Nord"
	},
	{
		"name": "Kita Eisenbahnstraße 52",
		"daycare_type": "Kita",
		"zipcode": "",
		"address": "Eisenbahnstraße 52",
		"latitude": "51.3458",
		"longitude": "12.4024",
		"district": "Ost"
	},
	{
		"name": "Kita Elsbethstraße 38",
		"daycare_type": "Kita",
		"zipcode": "04155",
		"address": "Elsbethstraße 38",
		"latitude": "51.36392415",
		"longitude": "12.3627533883",
		"district": "Nord"
	},
	{
		"name": "Kita Enderststraße  32",
		"daycare_type": "Kita",
		"zipcode": "",
		"address": "Enderststraße  32",
		"latitude": "51.3335036",
		"longitude": "12.327858",
		"district": "Alt-West"
	},
	{
		"name": "Kita Engelsdorfer Straße  279",
		"daycare_type": "Kita",
		"zipcode": "",
		"address": "Engelsdorfer Straße  279",
		"latitude": "51.33456",
		"longitude": "12.48326",
		"district": "Ost"
	},
	{
		"name": "Kita Engelsdorfer-Straße 130",
		"daycare_type": "Kita",
		"zipcode": "04316",
		"address": "Engelsdorfer-Straße 130",
		"latitude": "51.3318324",
		"longitude": "12.4456653",
		"district": "Ost"
	},
	{
		"name": "Kita Erhardstraße 6",
		"daycare_type": "Kita",
		"zipcode": "04229",
		"address": "Erhardstraße 6",
		"latitude": "51.3182475",
		"longitude": "12.3426508",
		"district": "Südwest"
	},
	{
		"name": "Kita Erich-Zeigner-Allee 77 a",
		"daycare_type": "Kita",
		"zipcode": "",
		"address": "Erich-Zeigner-Allee 77 a",
		"latitude": "51.32332",
		"longitude": "12.33713",
		"district": "Südwest"
	},
	{
		"name": "Kita Erich-Zeigner-Allee 77",
		"daycare_type": "Kita",
		"zipcode": "",
		"address": "Erich-Zeigner-Allee 77",
		"latitude": "51.32266",
		"longitude": "12.33697",
		"district": "Südwest"
	},
	{
		"name": "Kita Ferdinand-Rhode-Straße 17",
		"daycare_type": "Kita",
		"zipcode": "04107",
		"address": "Ferdinand-Rhode-Straße 17",
		"latitude": "51.3299711",
		"longitude": "12.3665524",
		"district": "Mitte"
	},
	{
		"name": "Kita Ferdinand-Rhode-Straße 17 a",
		"daycare_type": "Kita",
		"zipcode": "04107",
		"address": "Ferdinand-Rhode-Straße 17 a",
		"latitude": "51.3305161",
		"longitude": "12.367010327",
		"district": "Mitte"
	},
	{
		"name": "Kita Freiodaer Weg 2",
		"daycare_type": "Kita",
		"zipcode": "",
		"address": "Freiodaer Weg 2",
		"latitude": "51.385",
		"longitude": "12.27376",
		"district": "Nordwest"
	},
	{
		"name": "Kita Friedrich-Bosse-Straße 19",
		"daycare_type": "Kita",
		"zipcode": "",
		"address": "Friedrich-Bosse-Straße 19",
		"latitude": "51.36985",
		"longitude": "12.33437",
		"district": "Nordwest"
	},
	{
		"name": "Kita Friedrich-Bosse-Straße 87a",
		"daycare_type": "Kita",
		"zipcode": "",
		"address": "Friedrich-Bosse-Straße 87a",
		"latitude": "51.37238",
		"longitude": "12.32585",
		"district": "Nordwest"
	},
	{
		"name": "Kita Friedrich-Ludwig-Jahn-Straße 5",
		"daycare_type": "Kita",
		"zipcode": "04808",
		"address": "Friedrich-Ludwig-Jahn-Straße 5",
		"latitude": "51.3713739",
		"longitude": "12.7451761",
		"district": "West"
	},
	{
		"name": "Kita Friedrichshafner Str. 21",
		"daycare_type": "Kita",
		"zipcode": "",
		"address": "Friedrichshafner Str. 21",
		"latitude": "51.35412",
		"longitude": "12.41791",
		"district": "Nordost"
	},
	{
		"name": "Kita Friedrichshafner Straße 25",
		"daycare_type": "Kita",
		"zipcode": "",
		"address": "Friedrichshafner Straße 25",
		"latitude": "51.3655051",
		"longitude": "12.4070899",
		"district": "Nordost"
	},
	{
		"name": "Kita Friedrichshafner Straße 147",
		"daycare_type": "Kita",
		"zipcode": "",
		"address": "Friedrichshafner Straße 147",
		"latitude": "51.3774",
		"longitude": "12.40502",
		"district": "Nord"
	},
	{
		"name": "Kita Frohburger Straße  33 D",
		"daycare_type": "Kita",
		"zipcode": "",
		"address": "Frohburger Straße  33 D",
		"latitude": "51.31106",
		"longitude": "12.38116",
		"district": "Süd"
	},
	{
		"name": "Kita Gabelsbergerstraße 28",
		"daycare_type": "Kita",
		"zipcode": "04315",
		"address": "Gabelsbergerstraße 28",
		"latitude": "51.3422858",
		"longitude": "12.3966636",
		"district": "Mitte"
	},
	{
		"name": "Kita Garskestraße 17",
		"daycare_type": "Kita",
		"zipcode": "04205",
		"address": "Garskestraße 17",
		"latitude": "51.325878",
		"longitude": "12.2879222449",
		"district": "West"
	},
	{
		"name": "Kita Georg-Große-Straße 1a",
		"daycare_type": "Kita",
		"zipcode": "04319",
		"address": "Georg-Große-Straße 1a",
		"latitude": "51.3342952",
		"longitude": "12.477844",
		"district": "Ost"
	},
	{
		"name": "Kita Gerhard-Ellrodt-Straße 17 a",
		"daycare_type": "Kita",
		"zipcode": "",
		"address": "Gerhard-Ellrodt-Straße 17 a",
		"latitude": "51.29962",
		"longitude": "12.32139",
		"district": "Südwest"
	},
	{
		"name": "Kita Gersterstraße  9",
		"daycare_type": "Kita",
		"zipcode": "04279",
		"address": "Gersterstraße  9",
		"latitude": "51.2946904",
		"longitude": "12.3896621449",
		"district": "Süd"
	},
	{
		"name": "Kita Gleisstraße 1",
		"daycare_type": "Kita",
		"zipcode": "04229",
		"address": "Gleisstraße 1",
		"latitude": "51.3309033",
		"longitude": "12.3454895",
		"district": "Südwest"
	},
	{
		"name": "Kita Goldsternstraße  21 a",
		"daycare_type": "Kita",
		"zipcode": "",
		"address": "Goldsternstraße  21 a",
		"latitude": "51.35554",
		"longitude": "12.45573",
		"district": "Ost"
	},
	{
		"name": "Kita Goldsternstraße 21 b",
		"daycare_type": "Kita",
		"zipcode": "",
		"address": "Goldsternstraße 21 b",
		"latitude": "51.35554",
		"longitude": "12.45573",
		"district": "Ost"
	},
	{
		"name": "Kita Goyastraße 8",
		"daycare_type": "Kita",
		"zipcode": "04105",
		"address": "Goyastraße 8",
		"latitude": "51.3491873",
		"longitude": "12.3523336",
		"district": "Nordwest"
	},
	{
		"name": "Kita Grünauer Allee 18",
		"daycare_type": "Kita",
		"zipcode": "04209",
		"address": "Grünauer Allee 18",
		"latitude": "51.3177579",
		"longitude": "12.3071407",
		"district": "West"
	},
	{
		"name": "Kita Grünauer Allee 18 a",
		"daycare_type": "Kita",
		"zipcode": "",
		"address": "Grünauer Allee 18 a",
		"latitude": "51.31824",
		"longitude": "12.30697",
		"district": "West"
	},
	{
		"name": "Kita Güldengossaer Straße 6 - 8",
		"daycare_type": "Kita",
		"zipcode": "",
		"address": "Güldengossaer Straße 6 - 8",
		"latitude": "51.28224",
		"longitude": "12.45913",
		"district": "Südost"
	},
	{
		"name": "Kita Gundermannstr. 16",
		"daycare_type": "Kita",
		"zipcode": "04328",
		"address": "Gundermannstr. 16",
		"latitude": "51.351018",
		"longitude": "12.459252",
		"district": "Ost"
	},
	{
		"name": "Kita Gundermannstr.  18",
		"daycare_type": "Kita",
		"zipcode": "04328",
		"address": "Gundermannstr.  18",
		"latitude": "51.351018",
		"longitude": "12.459252",
		"district": "Nordost"
	},
	{
		"name": "Kita Gustav-Freytag-Straße 33  a",
		"daycare_type": "Kita",
		"zipcode": "",
		"address": "Gustav-Freytag-Straße 33  a",
		"latitude": "51.31359",
		"longitude": "12.37084",
		"district": "Süd"
	},
	{
		"name": "Kita Hannoversche Straße 52",
		"daycare_type": "Kita",
		"zipcode": "04157",
		"address": "Hannoversche Straße 52",
		"latitude": "51.3751865",
		"longitude": "12.3703314",
		"district": "Nord"
	},
	{
		"name": "Kita Hannoversche Straße 50",
		"daycare_type": "Kita",
		"zipcode": "04157",
		"address": "Hannoversche Straße 50",
		"latitude": "51.3751865",
		"longitude": "12.3703314",
		"district": "Nord"
	},
	{
		"name": "Kita Hans-Beimler-Straße 17",
		"daycare_type": "Kita",
		"zipcode": "04159",
		"address": "Hans-Beimler-Straße 17",
		"latitude": "51.3725287",
		"longitude": "12.3366678",
		"district": "Nordwest"
	},
	{
		"name": "Kita Hans-Beimler-Straße 3",
		"daycare_type": "Kita",
		"zipcode": "04159",
		"address": "Hans-Beimler-Straße 3",
		"latitude": "51.3725287",
		"longitude": "12.3366678",
		"district": "Nordwest"
	},
	{
		"name": "Kita Hans-Marchwitza-Straße 10",
		"daycare_type": "Kita",
		"zipcode": "04279",
		"address": "Hans-Marchwitza-Straße 10",
		"latitude": "51.2995571",
		"longitude": "12.3994039908",
		"district": "Süd"
	},
	{
		"name": "Kita Hans-Oster-Strasse 16",
		"daycare_type": "Kita",
		"zipcode": "04157",
		"address": "Hans-Oster-Strasse 16",
		"latitude": "51.370362",
		"longitude": "12.3603685",
		"district": "Nord"
	},
	{
		"name": "Kita Hans-Otto-Straße 2 a",
		"daycare_type": "Kita",
		"zipcode": "04279",
		"address": "Hans-Otto-Straße 2 a",
		"latitude": "51.3024271",
		"longitude": "12.3945887",
		"district": "Süd"
	},
	{
		"name": "Kita Hans-Otto-Straße 2 b",
		"daycare_type": "Kita",
		"zipcode": "04279",
		"address": "Hans-Otto-Straße 2 b",
		"latitude": "51.3024222",
		"longitude": "12.3950629",
		"district": "Süd"
	},
	{
		"name": "Kita Haydnstraße  20",
		"daycare_type": "Kita",
		"zipcode": "04107",
		"address": "Haydnstraße  20",
		"latitude": "51.3295037",
		"longitude": "12.3639994031",
		"district": "Mitte"
	},
	{
		"name": "Kita Heilemannstraße  19",
		"daycare_type": "Kita",
		"zipcode": "04277",
		"address": "Heilemannstraße  19",
		"latitude": "51.31191865",
		"longitude": "12.3676506448",
		"district": "Süd"
	},
	{
		"name": "Kita Herloßsohnstraße 20",
		"daycare_type": "Kita",
		"zipcode": "",
		"address": "Herloßsohnstraße 20",
		"latitude": "51.36017",
		"longitude": "12.35509",
		"district": "Nord"
	},
	{
		"name": "Kita Hermann-Liebmann-Straße 99",
		"daycare_type": "Kita",
		"zipcode": "04315",
		"address": "Hermann-Liebmann-Straße 99",
		"latitude": "51.34782505",
		"longitude": "12.4059339796",
		"district": "Ost"
	},
	{
		"name": "Kita Hohe Straße 21",
		"daycare_type": "Kita",
		"zipcode": "04107",
		"address": "Hohe Straße 21",
		"latitude": "51.3291257",
		"longitude": "12.3768974",
		"district": "Mitte"
	},
	{
		"name": "Kita Holsteinstraße 62/64",
		"daycare_type": "Kita",
		"zipcode": "04317",
		"address": "Holsteinstraße 62/64",
		"latitude": "51.3299302",
		"longitude": "12.410563",
		"district": "Südost"
	},
	{
		"name": "Kita Holunderweg 38",
		"daycare_type": "Kita",
		"zipcode": "",
		"address": "Holunderweg 38",
		"latitude": "51.26826",
		"longitude": "12.29138",
		"district": "Südwest"
	},
	{
		"name": "Kita Holzhäuser Str. 15",
		"daycare_type": "Kita",
		"zipcode": "",
		"address": "Holzhäuser Str. 15",
		"latitude": "51.31933",
		"longitude": "12.41134",
		"district": "Südost"
	},
	{
		"name": "Kita Jadassohnstraße 2",
		"daycare_type": "Kita",
		"zipcode": "04179",
		"address": "Jadassohnstraße 2",
		"latitude": "51.3346385",
		"longitude": "12.307223345",
		"district": "Alt-West"
	},
	{
		"name": "Kita Jaspisstrasse 52",
		"daycare_type": "Kita",
		"zipcode": "",
		"address": "Jaspisstrasse 52",
		"latitude": "51.33624",
		"longitude": "12.48236",
		"district": "Ost"
	},
	{
		"name": "Kita Jörgen-Schmidtchen-Weg 4",
		"daycare_type": "Kita",
		"zipcode": "04148",
		"address": "Jörgen-Schmidtchen-Weg 4",
		"latitude": "51.3800479",
		"longitude": "12.3612668",
		"district": "Nord"
	},
	{
		"name": "Kita Jörgen-Schmidtchen-Weg 6",
		"daycare_type": "Kita",
		"zipcode": "04148",
		"address": "Jörgen-Schmidtchen-Weg 6",
		"latitude": "51.3800479",
		"longitude": "12.3612668",
		"district": "Nord"
	},
	{
		"name": "Kita Jupiterstraße 37",
		"daycare_type": "Kita",
		"zipcode": "04205",
		"address": "Jupiterstraße 37",
		"latitude": "51.3209074",
		"longitude": "12.2709814",
		"district": "West"
	},
	{
		"name": "Kita Kändlerstraße 11",
		"daycare_type": "Kita",
		"zipcode": "04205",
		"address": "Kändlerstraße 11",
		"latitude": "51.3124849",
		"longitude": "12.2695133",
		"district": "West"
	},
	{
		"name": "Kita Kantatenweg 41 b",
		"daycare_type": "Kita",
		"zipcode": "",
		"address": "Kantatenweg 41 b",
		"latitude": "51.31817",
		"longitude": "12.33363",
		"district": "Südwest"
	},
	{
		"name": "Kita Kantatenweg 41 a",
		"daycare_type": "Kita",
		"zipcode": "",
		"address": "Kantatenweg 41 a",
		"latitude": "51.31817",
		"longitude": "12.33363",
		"district": "Südwest"
	},
	{
		"name": "Kita Kantor-Andrä-Straße  16",
		"daycare_type": "Kita",
		"zipcode": "04178",
		"address": "Kantor-Andrä-Straße  16",
		"latitude": "51.3548646",
		"longitude": "12.2879298",
		"district": "Alt-West"
	},
	{
		"name": "Kita Karl-Heine-Straße 34",
		"daycare_type": "Kita",
		"zipcode": "04229",
		"address": "Karl-Heine-Straße 34",
		"latitude": "51.3325916",
		"longitude": "12.3375871",
		"district": "Südwest"
	},
	{
		"name": "Kita Karl-Mannsfeld-Straße 7-8",
		"daycare_type": "Kita",
		"zipcode": "04159",
		"address": "Karl-Mannsfeld-Straße 7-8",
		"latitude": "51.3873751",
		"longitude": "12.3219241",
		"district": "Nordwest"
	},
	{
		"name": "Kita Kelbestraße  3",
		"daycare_type": "Kita",
		"zipcode": "04316",
		"address": "Kelbestraße  3",
		"latitude": "51.3267059",
		"longitude": "12.4522172",
		"district": "Ost"
	},
	{
		"name": "Kita Kleiststraße 12",
		"daycare_type": "Kita",
		"zipcode": "04157",
		"address": "Kleiststraße 12",
		"latitude": "51.3646185",
		"longitude": "12.3794932583",
		"district": "Nord"
	},
	{
		"name": "Kita Knautnaundorfer Straße 4 f",
		"daycare_type": "Kita",
		"zipcode": "",
		"address": "Knautnaundorfer Straße 4 f",
		"latitude": "",
		"longitude": "",
		"district": "Südwest"
	},
	{
		"name": "Kita Koehlerstraße  7",
		"daycare_type": "Kita",
		"zipcode": "",
		"address": "Koehlerstraße  7",
		"latitude": "51.3396",
		"longitude": "12.40365",
		"district": "Ost"
	},
	{
		"name": "Kita Kohlgartenweg 3",
		"daycare_type": "Kita",
		"zipcode": "04318",
		"address": "Kohlgartenweg 3",
		"latitude": "51.33503635",
		"longitude": "12.4122592794",
		"district": "Ost"
	},
	{
		"name": "Kita Königsteinstraße 70",
		"daycare_type": "Kita",
		"zipcode": "04207",
		"address": "Königsteinstraße 70",
		"latitude": "51.3051878",
		"longitude": "12.2641018",
		"district": "West"
	},
	{
		"name": "Kita Königsteinstraße 72",
		"daycare_type": "Kita",
		"zipcode": "04207",
		"address": "Königsteinstraße 72",
		"latitude": "51.3052785",
		"longitude": "12.2646537",
		"district": "West"
	},
	{
		"name": "Kita Könneritzstraße 47",
		"daycare_type": "Kita",
		"zipcode": "",
		"address": "Könneritzstraße 47",
		"latitude": "",
		"longitude": "",
		"district": "Südwest"
	},
	{
		"name": "Kita Konradstraße 70-72",
		"daycare_type": "Kita",
		"zipcode": "04315",
		"address": "Konradstraße 70-72",
		"latitude": "51.34415285",
		"longitude": "12.4118550906",
		"district": "Ost"
	},
	{
		"name": "Kita Krönerstraße 43/45",
		"daycare_type": "Kita",
		"zipcode": "",
		"address": "Krönerstraße 43/45",
		"latitude": "51.3397",
		"longitude": "12.41636",
		"district": "Ost"
	},
	{
		"name": "Kita Kunzestraße 4",
		"daycare_type": "Kita",
		"zipcode": "04229",
		"address": "Kunzestraße 4",
		"latitude": "51.3053098",
		"longitude": "12.3308078",
		"district": "Südwest"
	},
	{
		"name": "Kita Kunzestraße 6",
		"daycare_type": "Kita",
		"zipcode": "04229",
		"address": "Kunzestraße 6",
		"latitude": "51.3053098",
		"longitude": "12.3308078",
		"district": "Südwest"
	},
	{
		"name": "Kita Kurt-Tucholsky-Straße 12",
		"daycare_type": "Kita",
		"zipcode": "",
		"address": "Kurt-Tucholsky-Straße 12",
		"latitude": "51.30185",
		"longitude": "12.40336",
		"district": "Südost"
	},
	{
		"name": "Kita Lange Straße 23",
		"daycare_type": "Kita",
		"zipcode": "",
		"address": "Lange Straße 23",
		"latitude": "51.3416",
		"longitude": "12.39353",
		"district": "Mitte"
	},
	{
		"name": "Kita Leipziger Straße 21",
		"daycare_type": "Kita",
		"zipcode": "04178",
		"address": "Leipziger Straße 21",
		"latitude": "51.3561645",
		"longitude": "12.2985197",
		"district": "Alt-West"
	},
	{
		"name": "Kita Leonhard-Frank-Straße 24b",
		"daycare_type": "Kita",
		"zipcode": "",
		"address": "Leonhard-Frank-Straße 24b",
		"latitude": "51.34931",
		"longitude": "12.4292",
		"district": "Ost"
	},
	{
		"name": "Kita Lerchenrain 14-16",
		"daycare_type": "Kita",
		"zipcode": "",
		"address": "Lerchenrain 14-16",
		"latitude": "51.30883",
		"longitude": "12.40204",
		"district": "Süd"
	},
	{
		"name": "Kita Lichtenbergweg 3",
		"daycare_type": "Kita",
		"zipcode": "04299",
		"address": "Lichtenbergweg 3",
		"latitude": "51.3201012",
		"longitude": "12.4112986",
		"district": "Südost"
	},
	{
		"name": "Kita Liebigstraße 22 b",
		"daycare_type": "Kita",
		"zipcode": "",
		"address": "Liebigstraße 22 b",
		"latitude": "51.3312",
		"longitude": "12.3897",
		"district": "Mitte"
	},
	{
		"name": "Kita Lindenallee 3 a",
		"daycare_type": "Kita",
		"zipcode": "",
		"address": "Lindenallee 3 a",
		"latitude": "51.40378",
		"longitude": "12.34059",
		"district": "Nordwest"
	},
	{
		"name": "Kita Lindenstraße 54",
		"daycare_type": "Kita",
		"zipcode": "",
		"address": "Lindenstraße 54",
		"latitude": "51.39743",
		"longitude": "12.3788",
		"district": "Nord"
	},
	{
		"name": "Kita Linnéstraße 12",
		"daycare_type": "Kita",
		"zipcode": "04103",
		"address": "Linnéstraße 12",
		"latitude": "51.3258525",
		"longitude": "12.3925495244",
		"district": "Mitte"
	},
	{
		"name": "Kita Lobstädter Str.  14",
		"daycare_type": "Kita",
		"zipcode": "",
		"address": "Lobstädter Str.  14",
		"latitude": "51.29802",
		"longitude": "12.38911",
		"district": "Süd"
	},
	{
		"name": "Kita Löhrstraße 9",
		"daycare_type": "Kita",
		"zipcode": "",
		"address": "Löhrstraße 9",
		"latitude": "51.34571",
		"longitude": "12.37322",
		"district": "Mitte"
	},
	{
		"name": "Kita Lößniger Straße 8",
		"daycare_type": "Kita",
		"zipcode": "04416",
		"address": "Lößniger Straße 8",
		"latitude": "51.28918975",
		"longitude": "12.3744741465",
		"district": "Mitte"
	},
	{
		"name": "Kita Louis-Fürnberg-Straße 19",
		"daycare_type": "Kita",
		"zipcode": "04138",
		"address": "Louis-Fürnberg-Straße 19",
		"latitude": "51.348765",
		"longitude": "12.4276295",
		"district": "Südost"
	},
	{
		"name": "Kita Louis-Fürnberg-Straße 21",
		"daycare_type": "Kita",
		"zipcode": "04318",
		"address": "Louis-Fürnberg-Straße 21",
		"latitude": "51.3481902",
		"longitude": "12.425997",
		"district": "Südost"
	},
	{
		"name": "Kita Marschnerstraße 21",
		"daycare_type": "Kita",
		"zipcode": "",
		"address": "Marschnerstraße 21",
		"latitude": "51.33669",
		"longitude": "12.35606",
		"district": "Mitte"
	},
	{
		"name": "Kita Meininger Ring 41",
		"daycare_type": "Kita",
		"zipcode": "04205",
		"address": "Meininger Ring 41",
		"latitude": "51.3198952",
		"longitude": "12.2790497",
		"district": "Nordwest"
	},
	{
		"name": "Kita Meusdorfer Straße 47 b",
		"daycare_type": "Kita",
		"zipcode": "04277",
		"address": "Meusdorfer Straße 47 b",
		"latitude": "51.3047518",
		"longitude": "12.376086",
		"district": "Süd"
	},
	{
		"name": "Kita Mothesstraße 2",
		"daycare_type": "Kita",
		"zipcode": "04129",
		"address": "Mothesstraße 2",
		"latitude": "51.3737377",
		"longitude": "12.3854064",
		"district": "Nord"
	},
	{
		"name": "Kita Naunhofer Straße 31",
		"daycare_type": "Kita",
		"zipcode": "",
		"address": "Naunhofer Straße 31",
		"latitude": "51.31691",
		"longitude": "12.41496",
		"district": "Südost"
	},
	{
		"name": "Kita Neptunweg  29a",
		"daycare_type": "Kita",
		"zipcode": "",
		"address": "Neptunweg  29a",
		"latitude": "51.32442",
		"longitude": "12.2691",
		"district": "West"
	},
	{
		"name": "Kita Neue Leipziger Straße 37 a",
		"daycare_type": "Kita",
		"zipcode": "04205",
		"address": "Neue Leipziger Straße 37 a",
		"latitude": "51.3201831",
		"longitude": "12.2654375",
		"district": "West"
	},
	{
		"name": "Kita Neue Leipziger Straße 39 a",
		"daycare_type": "Kita",
		"zipcode": "04205",
		"address": "Neue Leipziger Straße 39 a",
		"latitude": "51.3201831",
		"longitude": "12.2654375",
		"district": "West"
	},
	{
		"name": "Kita Nordplatz 14",
		"daycare_type": "Kita",
		"zipcode": "04105",
		"address": "Nordplatz 14",
		"latitude": "51.35278285",
		"longitude": "12.3740353801",
		"district": "Mitte"
	},
	{
		"name": "Kita Nordstraße 43 a/b",
		"daycare_type": "Kita",
		"zipcode": "",
		"address": "Nordstraße 43 a/b",
		"latitude": "51.35002",
		"longitude": "12.3739",
		"district": "Mitte"
	},
	{
		"name": "Kita Nordweg  9",
		"daycare_type": "Kita",
		"zipcode": "",
		"address": "Nordweg  9",
		"latitude": "51.39477",
		"longitude": "12.37535",
		"district": "Nord"
	},
	{
		"name": "Kita Odermannstraße 4",
		"daycare_type": "Kita",
		"zipcode": "04177",
		"address": "Odermannstraße 4",
		"latitude": "51.3372964",
		"longitude": "12.3324212",
		"district": "Alt-West"
	},
	{
		"name": "Kita Oststraße  128",
		"daycare_type": "Kita",
		"zipcode": "04299",
		"address": "Oststraße  128",
		"latitude": "51.3268705",
		"longitude": "12.4182879268",
		"district": "Südost"
	},
	{
		"name": "Kita Oststraße 185",
		"daycare_type": "Kita",
		"zipcode": "04299",
		"address": "Oststraße 185",
		"latitude": "51.3236893",
		"longitude": "12.42209875",
		"district": "Südost"
	},
	{
		"name": "Kita Palmstraße 4",
		"daycare_type": "Kita",
		"zipcode": "04317",
		"address": "Palmstraße 4",
		"latitude": "51.3289537",
		"longitude": "12.4114069829",
		"district": "Südost"
	},
	{
		"name": "Kita Paul-List-Straße 11 c",
		"daycare_type": "Kita",
		"zipcode": "",
		"address": "Paul-List-Straße 11 c",
		"latitude": "",
		"longitude": "",
		"district": "Mitte"
	},
	{
		"name": "Kita Paul-Michael-Str. 15",
		"daycare_type": "Kita",
		"zipcode": "04179",
		"address": "Paul-Michael-Str. 15",
		"latitude": "51.35305",
		"longitude": "12.3148857011",
		"district": "Alt-West"
	},
	{
		"name": "Kita Pistorisstraße 10",
		"daycare_type": "Kita",
		"zipcode": "04229",
		"address": "Pistorisstraße 10",
		"latitude": "51.3157598",
		"longitude": "12.3423115",
		"district": "Südwest"
	},
	{
		"name": "Kita Platnerstraße 11",
		"daycare_type": "Kita",
		"zipcode": "",
		"address": "Platnerstraße 11",
		"latitude": "51.3587892",
		"longitude": "12.3607331",
		"district": "Nord"
	},
	{
		"name": "Kita Poetenweg 22",
		"daycare_type": "Kita",
		"zipcode": "04155",
		"address": "Poetenweg 22",
		"latitude": "51.35652465",
		"longitude": "12.3659189992",
		"district": "Nord"
	},
	{
		"name": "Kita Poserstraße 55",
		"daycare_type": "Kita",
		"zipcode": "",
		"address": "Poserstraße 55",
		"latitude": "51.35373",
		"longitude": "12.42545",
		"district": "Nordost"
	},
	{
		"name": "Kita Prager Straße 224",
		"daycare_type": "Kita",
		"zipcode": "",
		"address": "Prager Straße 224",
		"latitude": "51.30781",
		"longitude": "12.42099",
		"district": "Südost"
	},
	{
		"name": "Kita Raschwitzer Str. 4",
		"daycare_type": "Kita",
		"zipcode": "04416",
		"address": "Raschwitzer Str. 4",
		"latitude": "51.2855487",
		"longitude": "12.3739786",
		"district": "Süd"
	},
	{
		"name": "Kita Raschwitzer Straße 15",
		"daycare_type": "Kita",
		"zipcode": "",
		"address": "Raschwitzer Straße 15",
		"latitude": "51.29487",
		"longitude": "12.38396",
		"district": "Süd"
	},
	{
		"name": "Kita Rathenaustraße 21",
		"daycare_type": "Kita",
		"zipcode": "",
		"address": "Rathenaustraße 21",
		"latitude": "51.35497",
		"longitude": "12.31444",
		"district": "Alt-West"
	},
	{
		"name": "Kita Reichelstr. 3",
		"daycare_type": "Kita",
		"zipcode": "04109",
		"address": "Reichelstr. 3",
		"latitude": "51.3369744",
		"longitude": "12.3671569",
		"district": "Mitte"
	},
	{
		"name": "Kita Reichelstraße 3-5",
		"daycare_type": "Kita",
		"zipcode": "04109",
		"address": "Reichelstraße 3-5",
		"latitude": "51.3369744",
		"longitude": "12.3671569",
		"district": "Mitte"
	},
	{
		"name": "Kita Richard-Lehmann-Str. 30 A",
		"daycare_type": "Kita",
		"zipcode": "",
		"address": "Richard-Lehmann-Str. 30 A",
		"latitude": "51.31449",
		"longitude": "12.37092",
		"district": "Süd"
	},
	{
		"name": "Kita Rietschelstraße 12",
		"daycare_type": "Kita",
		"zipcode": "",
		"address": "Rietschelstraße 12",
		"latitude": "51.33959",
		"longitude": "12.33283",
		"district": "Alt-West"
	},
	{
		"name": "Kita Rietschelstraße 52",
		"daycare_type": "Kita",
		"zipcode": "",
		"address": "Rietschelstraße 52",
		"latitude": "51.3455582",
		"longitude": "12.3246879",
		"district": "Alt-West"
	},
	{
		"name": "Kita Ringstraße  213",
		"daycare_type": "Kita",
		"zipcode": "04209",
		"address": "Ringstraße  213",
		"latitude": "51.31572115",
		"longitude": "12.2938791616",
		"district": "West"
	},
	{
		"name": "Kita Roßmarktstraße 6",
		"daycare_type": "Kita",
		"zipcode": "04177",
		"address": "Roßmarktstraße 6",
		"latitude": "51.33958255",
		"longitude": "12.3353732971",
		"district": "Alt-West"
	},
	{
		"name": "Kita Rudolph-Sack-Straße 12",
		"daycare_type": "Kita",
		"zipcode": "04229",
		"address": "Rudolph-Sack-Straße 12",
		"latitude": "51.3308021",
		"longitude": "12.3412623",
		"district": "Südwest"
	},
	{
		"name": "Kita Russenstraße 135",
		"daycare_type": "Kita",
		"zipcode": "",
		"address": "Russenstraße 135",
		"latitude": "51.30413",
		"longitude": "12.44936",
		"district": "Südost"
	},
	{
		"name": "Kita Salomonstraße 10",
		"daycare_type": "Kita",
		"zipcode": "04103",
		"address": "Salomonstraße 10",
		"latitude": "51.3396025",
		"longitude": "12.3890014",
		"district": "Mitte"
	},
	{
		"name": "Kita Samuel-Lampel-Straße 2",
		"daycare_type": "Kita",
		"zipcode": "04357",
		"address": "Samuel-Lampel-Straße 2",
		"latitude": "51.3786618",
		"longitude": "12.420163",
		"district": "Nordost"
	},
	{
		"name": "Kita Schenkendorfstraße 30",
		"daycare_type": "Kita",
		"zipcode": "04275",
		"address": "Schenkendorfstraße 30",
		"latitude": "51.32399005",
		"longitude": "12.3747539694",
		"district": "Süd"
	},
	{
		"name": "Kita Schenkendorfstraße 10",
		"daycare_type": "Kita",
		"zipcode": "04275",
		"address": "Schenkendorfstraße 10",
		"latitude": "51.32421435",
		"longitude": "12.3711697716",
		"district": "Süd"
	},
	{
		"name": "Kita Schönauer Ring 23",
		"daycare_type": "Kita",
		"zipcode": "04209",
		"address": "Schönauer Ring 23",
		"latitude": "51.32831065",
		"longitude": "12.2871061092",
		"district": "West"
	},
	{
		"name": "Kita Schönbachstraße 63",
		"daycare_type": "Kita",
		"zipcode": "",
		"address": "Schönbachstraße 63",
		"latitude": "51.3222",
		"longitude": "12.4131",
		"district": "Südost"
	},
	{
		"name": "Kita Schönefelder Allee 23 a",
		"daycare_type": "Kita",
		"zipcode": "",
		"address": "Schönefelder Allee 23 a",
		"latitude": "51.35729",
		"longitude": "12.40533",
		"district": "Nordost"
	},
	{
		"name": "Kita Schröderstraße 1",
		"daycare_type": "Kita",
		"zipcode": "04178",
		"address": "Schröderstraße 1",
		"latitude": "51.3567302",
		"longitude": "12.2636613",
		"district": "Alt-West"
	},
	{
		"name": "Kita Schulzeweg 11",
		"daycare_type": "Kita",
		"zipcode": "",
		"address": "Schulzeweg 11",
		"latitude": "51.35322",
		"longitude": "12.41743",
		"district": "Nordost"
	},
	{
		"name": "Kita Schützstraße 2",
		"daycare_type": "Kita",
		"zipcode": "",
		"address": "Schützstraße 2",
		"latitude": "51.35304",
		"longitude": "12.32063",
		"district": "Alt-West"
	},
	{
		"name": "Kita Sebastian-Bach-Straße 1 a",
		"daycare_type": "Kita",
		"zipcode": "04109",
		"address": "Sebastian-Bach-Straße 1 a",
		"latitude": "51.3366902",
		"longitude": "12.3610027458",
		"district": "Mitte"
	},
	{
		"name": "Kita Seidelstraße 1/3",
		"daycare_type": "Kita",
		"zipcode": "04289",
		"address": "Seidelstraße 1/3",
		"latitude": "51.2978644",
		"longitude": "12.4302299",
		"district": "Südost"
	},
	{
		"name": "Kita Seipelweg 16 b",
		"daycare_type": "Kita",
		"zipcode": "04347",
		"address": "Seipelweg 16 b",
		"latitude": "51.354155",
		"longitude": "12.4167",
		"district": "Nordost"
	},
	{
		"name": "Kita Seitengasse 2",
		"daycare_type": "Kita",
		"zipcode": "04129",
		"address": "Seitengasse 2",
		"latitude": "51.3676978",
		"longitude": "12.3856278",
		"district": "Nord"
	},
	{
		"name": "Kita Seumestraße 99",
		"daycare_type": "Kita",
		"zipcode": "04249",
		"address": "Seumestraße 99",
		"latitude": "51.27807825",
		"longitude": "12.3120318568",
		"district": "Südwest"
	},
	{
		"name": "Kita Sommerfelder Straße 29",
		"daycare_type": "Kita",
		"zipcode": "04299",
		"address": "Sommerfelder Straße 29",
		"latitude": "51.3209638",
		"longitude": "12.427593",
		"district": "Südost"
	},
	{
		"name": "Kita Sophie-Scholl-Straße 6",
		"daycare_type": "Kita",
		"zipcode": "04316",
		"address": "Sophie-Scholl-Straße 6",
		"latitude": "51.326737",
		"longitude": "12.4389685",
		"district": "Ost"
	},
	{
		"name": "Kita Spinnereistraße 8",
		"daycare_type": "Kita",
		"zipcode": "04179",
		"address": "Spinnereistraße 8",
		"latitude": "51.32802545",
		"longitude": "12.3180869187",
		"district": "Alt-West"
	},
	{
		"name": "Kita Spinnereistraße 10",
		"daycare_type": "Kita",
		"zipcode": "04179",
		"address": "Spinnereistraße 10",
		"latitude": "51.32769105",
		"longitude": "12.3175288485",
		"district": "Alt-West"
	},
	{
		"name": "Kita Spittastraße 7",
		"daycare_type": "Kita",
		"zipcode": "04177",
		"address": "Spittastraße 7",
		"latitude": "51.3401986",
		"longitude": "12.3251041",
		"district": "Alt-West"
	},
	{
		"name": "Kita Sternwartenstraße 30 a/b",
		"daycare_type": "Kita",
		"zipcode": "",
		"address": "Sternwartenstraße 30 a/b",
		"latitude": "51.33369",
		"longitude": "12.38492",
		"district": "Mitte"
	},
	{
		"name": "Kita Stollberger Straße 8",
		"daycare_type": "Kita",
		"zipcode": "04357",
		"address": "Stollberger Straße 8",
		"latitude": "51.37846765",
		"longitude": "12.4337667356",
		"district": "Nordost"
	},
	{
		"name": "Kita Stötteritzer Straße 1",
		"daycare_type": "Kita",
		"zipcode": "04317",
		"address": "Stötteritzer Straße 1",
		"latitude": "51.3293899",
		"longitude": "12.4006168",
		"district": "Südost"
	},
	{
		"name": "Kita Südblick 5",
		"daycare_type": "Kita",
		"zipcode": "04328",
		"address": "Südblick 5",
		"latitude": "51.35132",
		"longitude": "12.45478",
		"district": "Südost"
	},
	{
		"name": "Kita Tarostraße 7",
		"daycare_type": "Kita",
		"zipcode": "04103",
		"address": "Tarostraße 7",
		"latitude": "51.3245381",
		"longitude": "12.3876033765",
		"district": "Mitte"
	},
	{
		"name": "Kita Tarostraße 9",
		"daycare_type": "Kita",
		"zipcode": "04103",
		"address": "Tarostraße 9",
		"latitude": "51.32435545",
		"longitude": "12.3873800164",
		"district": "Mitte"
	},
	{
		"name": "Kita Tarostraße 17-19",
		"daycare_type": "Kita",
		"zipcode": "04103",
		"address": "Tarostraße 17-19",
		"latitude": "51.3247901",
		"longitude": "12.3884584",
		"district": "Mitte"
	},
	{
		"name": "Kita Täubchenweg 30",
		"daycare_type": "Kita",
		"zipcode": "",
		"address": "Täubchenweg 30",
		"latitude": "51.33566",
		"longitude": "12.40165",
		"district": "Südost"
	},
	{
		"name": "Kita Theodor-Neubauer-Straße 18",
		"daycare_type": "Kita",
		"zipcode": "04318",
		"address": "Theodor-Neubauer-Straße 18",
		"latitude": "51.3353405",
		"longitude": "12.413676",
		"district": "Ost"
	},
	{
		"name": "Kita Thietmarstraße 13",
		"daycare_type": "Kita",
		"zipcode": "04179",
		"address": "Thietmarstraße 13",
		"latitude": "51.3290522",
		"longitude": "12.3155805691",
		"district": "Alt-West"
	},
	{
		"name": "Kita Thünenstraße 2",
		"daycare_type": "Kita",
		"zipcode": "",
		"address": "Thünenstraße 2",
		"latitude": "51.36912",
		"longitude": "12.39481",
		"district": "Nord"
	},
	{
		"name": "Kita Tschaikowskistrasse 28",
		"daycare_type": "Kita",
		"zipcode": "04105",
		"address": "Tschaikowskistrasse 28",
		"latitude": "51.3461423",
		"longitude": "12.3603667275",
		"district": "Mitte"
	},
	{
		"name": "Kita Vollhardtstraße 16",
		"daycare_type": "Kita",
		"zipcode": "04279",
		"address": "Vollhardtstraße 16",
		"latitude": "51.28892155",
		"longitude": "12.3879386071",
		"district": "Süd"
	},
	{
		"name": "Kita Waldkerbelstraße 2",
		"daycare_type": "Kita",
		"zipcode": "04328",
		"address": "Waldkerbelstraße 2",
		"latitude": "51.3585126",
		"longitude": "12.4598978",
		"district": "Ost"
	},
	{
		"name": "Kita Waldrebenweg 9",
		"daycare_type": "Kita",
		"zipcode": "04319",
		"address": "Waldrebenweg 9",
		"latitude": "51.3478911",
		"longitude": "12.4833916",
		"district": "Ost"
	},
	{
		"name": "Kita Walter-Heinze-Straße 22",
		"daycare_type": "Kita",
		"zipcode": "",
		"address": "Walter-Heinze-Straße 22",
		"latitude": "51.33027",
		"longitude": "12.33503",
		"district": "Südwest"
	},
	{
		"name": "Kita Weißdornstraße  2",
		"daycare_type": "Kita",
		"zipcode": "",
		"address": "Weißdornstraße  2",
		"latitude": "51.32182",
		"longitude": "12.29445",
		"district": "West"
	},
	{
		"name": "Kita Wiesenstraße 18",
		"daycare_type": "Kita",
		"zipcode": "",
		"address": "Wiesenstraße 18",
		"latitude": "51.35638",
		"longitude": "12.46526",
		"district": "Ost"
	},
	{
		"name": "Kita Wilhelm-Sammet-Str. 4",
		"daycare_type": "Kita",
		"zipcode": "04129",
		"address": "Wilhelm-Sammet-Str. 4",
		"latitude": "51.3618051",
		"longitude": "12.3805763097",
		"district": "Nord"
	},
	{
		"name": "Kita William-Zipperer-Straße 149",
		"daycare_type": "Kita",
		"zipcode": "04179",
		"address": "William-Zipperer-Straße 149",
		"latitude": "51.3488866",
		"longitude": "12.3133479",
		"district": "Alt-West"
	},
	{
		"name": "Kita Willmar-Schwabe-Straße 4",
		"daycare_type": "Kita",
		"zipcode": "04105",
		"address": "Willmar-Schwabe-Straße 4",
		"latitude": "51.34106215",
		"longitude": "12.3577698659",
		"district": "Mitte"
	},
	{
		"name": "Kita Windscheidstraße 32",
		"daycare_type": "Kita",
		"zipcode": "04277",
		"address": "Windscheidstraße 32",
		"latitude": "51.3107675",
		"longitude": "12.3686734802",
		"district": "Süd"
	},
	{
		"name": "Kita Wurzner Straße 122",
		"daycare_type": "Kita",
		"zipcode": "",
		"address": "Wurzner Straße 122",
		"latitude": "51.3438316",
		"longitude": "12.4182128",
		"district": "Ost"
	},
	{
		"name": "Kita Yorckstraße  43 b",
		"daycare_type": "Kita",
		"zipcode": "",
		"address": "Yorckstraße  43 b",
		"latitude": "51.37001",
		"longitude": "12.34357",
		"district": "Nordwest"
	},
	{
		"name": "Kita Yorckstraße  43 a",
		"daycare_type": "Kita",
		"zipcode": "",
		"address": "Yorckstraße  43 a",
		"latitude": "51.37001",
		"longitude": "12.34357",
		"district": "Nordwest"
	},
	{
		"name": "Kita Zeumer Straße 5",
		"daycare_type": "Kita",
		"zipcode": "",
		"address": "Zeumer Straße 5",
		"latitude": "51.35799",
		"longitude": "12.4072",
		"district": "Ost"
	},
	{
		"name": "Kita Zeumerstraße 1",
		"daycare_type": "Kita",
		"zipcode": "04347",
		"address": "Zeumerstraße 1",
		"latitude": "51.3596377",
		"longitude": "12.4068927",
		"district": "Nordost"
	},
	{
		"name": "Kita Zingster Straße 02",
		"daycare_type": "Kita",
		"zipcode": "",
		"address": "Zingster Straße 02",
		"latitude": "51.3106625",
		"longitude": "12.2599238",
		"district": "West"
	},
	{
		"name": "Kita Zittauer Straße 2 a",
		"daycare_type": "Kita",
		"zipcode": "04347",
		"address": "Zittauer Straße 2 a",
		"latitude": "51.3560341",
		"longitude": "12.4103927",
		"district": "Nordost"
	},
	{
		"name": "Kita Zum Kleingartenpark  15",
		"daycare_type": "Kita",
		"zipcode": "04318",
		"address": "Zum Kleingartenpark  15",
		"latitude": "51.342407",
		"longitude": "12.4233467",
		"district": "Ost"
	},
	{
		"name": "Kita Zur Schule  10",
		"daycare_type": "Kita",
		"zipcode": "",
		"address": "Zur Schule  10",
		"latitude": "51.3933745",
		"longitude": "12.372747",
		"district": "Nord"
	},
	{
		"name": "Kita Zweinauendorfer Straße 167",
		"daycare_type": "Kita",
		"zipcode": "",
		"address": "Zweinauendorfer Straße 167",
		"latitude": "51.32713",
		"longitude": "12.44172",
		"district": "Ost"
	},
	{
		"name": "1",
		"daycare_type": "Tagesmutter",
		"zipcode": "",
		"address": "",
		"latitude": "",
		"longitude": "",
		"district": "Nordost"
	},
	{
		"name": "2",
		"daycare_type": "Tagesmutter",
		"zipcode": "",
		"address": "",
		"latitude": "",
		"longitude": "",
		"district": "Nordost"
	},
	{
		"name": "3",
		"daycare_type": "Tagesmutter",
		"zipcode": "",
		"address": "",
		"latitude": "",
		"longitude": "",
		"district": "Nordost"
	},
	{
		"name": "BBW-TPP16",
		"daycare_type": "Tagesmutter",
		"zipcode": "",
		"address": "",
		"latitude": "",
		"longitude": "",
		"district": "Südost"
	},
	{
		"name": "FAIRbund TPP03",
		"daycare_type": "Tagesmutter",
		"zipcode": "",
		"address": "",
		"latitude": "",
		"longitude": "",
		"district": "Nord"
	},
	{
		"name": "FAIRbund TPP05",
		"daycare_type": "Tagesmutter",
		"zipcode": "",
		"address": "",
		"latitude": "",
		"longitude": "",
		"district": "Nord"
	},
	{
		"name": "FAIRbund TPP06",
		"daycare_type": "Tagesmutter",
		"zipcode": "",
		"address": "",
		"latitude": "",
		"longitude": "",
		"district": "Nord"
	},
	{
		"name": "FAIRbund TPP07",
		"daycare_type": "Tagesmutter",
		"zipcode": "",
		"address": "",
		"latitude": "",
		"longitude": "",
		"district": "Ost"
	},
	{
		"name": "FAIRbund TPP09",
		"daycare_type": "Tagesmutter",
		"zipcode": "",
		"address": "",
		"latitude": "",
		"longitude": "",
		"district": "Nord"
	},
	{
		"name": "FJ-FRÖBEL-Lößnig",
		"daycare_type": "Tagesmutter",
		"zipcode": "",
		"address": "",
		"latitude": "",
		"longitude": "",
		"district": "Süd"
	},
	{
		"name": "int-bsw 80100",
		"daycare_type": "Tagesmutter",
		"zipcode": "04317",
		"address": "Schulze-Boysen-Straße 12",
		"latitude": "51.3306576333",
		"longitude": "12.3997725667",
		"district": "Südost"
	},
	{
		"name": "int-bsw 83900",
		"daycare_type": "Tagesmutter",
		"zipcode": "",
		"address": "",
		"latitude": "",
		"longitude": "",
		"district": "Ost"
	},
	{
		"name": "KüchollKa",
		"daycare_type": "Tagesmutter",
		"zipcode": "",
		"address": "",
		"latitude": "",
		"longitude": "",
		"district": "Nord"
	},
	{
		"name": "MüllerMa",
		"daycare_type": "Tagesmutter",
		"zipcode": "",
		"address": "",
		"latitude": "",
		"longitude": "",
		"district": "Nordost"
	},
	{
		"name": "MuruchiGe",
		"daycare_type": "Tagesmutter",
		"zipcode": "",
		"address": "",
		"latitude": "",
		"longitude": "",
		"district": "Südwest"
	},
	{
		"name": "NieschAn",
		"daycare_type": "Tagesmutter",
		"zipcode": "",
		"address": "",
		"latitude": "",
		"longitude": "",
		"district": "West"
	},
	{
		"name": "OUTLAW-LIE",
		"daycare_type": "Tagesmutter",
		"zipcode": "",
		"address": "",
		"latitude": "",
		"longitude": "",
		"district": "Ost"
	},
	{
		"name": "OUTLAW-MER",
		"daycare_type": "Tagesmutter",
		"zipcode": "",
		"address": "",
		"latitude": "",
		"longitude": "",
		"district": "Südwest"
	},
	{
		"name": "OUTLAW-ORT",
		"daycare_type": "Tagesmutter",
		"zipcode": "",
		"address": "",
		"latitude": "",
		"longitude": "",
		"district": "Nordwest"
	},
	{
		"name": "OUTLAW-SCHM",
		"daycare_type": "Tagesmutter",
		"zipcode": "",
		"address": "",
		"latitude": "",
		"longitude": "",
		"district": "Südwest"
	},
	{
		"name": "OUTLAW-WÖC",
		"daycare_type": "Tagesmutter",
		"zipcode": "04179",
		"address": "Demmeringstraße 157",
		"latitude": "51.3312781",
		"longitude": "12.3123812078",
		"district": "Alt-West"
	},
	{
		"name": "Rahn01",
		"daycare_type": "Tagesmutter",
		"zipcode": "",
		"address": "",
		"latitude": "",
		"longitude": "",
		"district": "West"
	},
	{
		"name": "Rahn02",
		"daycare_type": "Tagesmutter",
		"zipcode": "",
		"address": "",
		"latitude": "",
		"longitude": "",
		"district": "Nordost"
	},
	{
		"name": "Rahn03",
		"daycare_type": "Tagesmutter",
		"zipcode": "",
		"address": "",
		"latitude": "",
		"longitude": "",
		"district": "Nord"
	},
	{
		"name": "Rahn04",
		"daycare_type": "Tagesmutter",
		"zipcode": "",
		"address": "",
		"latitude": "",
		"longitude": "",
		"district": "Nordwest"
	},
	{
		"name": "Rahn05",
		"daycare_type": "Tagesmutter",
		"zipcode": "",
		"address": "",
		"latitude": "",
		"longitude": "",
		"district": "Nord"
	},
	{
		"name": "Rahn06",
		"daycare_type": "Tagesmutter",
		"zipcode": "",
		"address": "",
		"latitude": "",
		"longitude": "",
		"district": "West"
	},
	{
		"name": "Rahn07",
		"daycare_type": "Tagesmutter",
		"zipcode": "",
		"address": "",
		"latitude": "",
		"longitude": "",
		"district": "Südost"
	},
	{
		"name": "Rahn09",
		"daycare_type": "Tagesmutter",
		"zipcode": "",
		"address": "",
		"latitude": "",
		"longitude": "",
		"district": "Südwest"
	},
	{
		"name": "Rahn10",
		"daycare_type": "Tagesmutter",
		"zipcode": "",
		"address": "",
		"latitude": "",
		"longitude": "",
		"district": "Südost"
	},
	{
		"name": "SchakatJa",
		"daycare_type": "Tagesmutter",
		"zipcode": "",
		"address": "",
		"latitude": "",
		"longitude": "",
		"district": "West"
	},
	{
		"name": "SchwippsSa",
		"daycare_type": "Tagesmutter",
		"zipcode": "",
		"address": "",
		"latitude": "",
		"longitude": "",
		"district": "Nord"
	},
	{
		"name": "Tagesmützel_04",
		"daycare_type": "Tagesmutter",
		"zipcode": "",
		"address": "",
		"latitude": "",
		"longitude": "",
		"district": "Südwest"
	},
	{
		"name": "Tagesmützel_07",
		"daycare_type": "Tagesmutter",
		"zipcode": "",
		"address": "",
		"latitude": "",
		"longitude": "",
		"district": "Nordost"
	},
	{
		"name": "Tagesmützel_08",
		"daycare_type": "Tagesmutter",
		"zipcode": "",
		"address": "",
		"latitude": "",
		"longitude": "",
		"district": "Ost"
	},
	{
		"name": "Tagesmützel_13",
		"daycare_type": "Tagesmutter",
		"zipcode": "",
		"address": "",
		"latitude": "",
		"longitude": "",
		"district": "Südwest"
	},
	{
		"name": "Tagesmützel_16",
		"daycare_type": "Tagesmutter",
		"zipcode": "",
		"address": "",
		"latitude": "",
		"longitude": "",
		"district": "Ost"
	},
	{
		"name": "Tagesmützel_18",
		"daycare_type": "Tagesmutter",
		"zipcode": "",
		"address": "",
		"latitude": "",
		"longitude": "",
		"district": "Nord"
	},
	{
		"name": "Tagesmützel_21",
		"daycare_type": "Tagesmutter",
		"zipcode": "",
		"address": "",
		"latitude": "",
		"longitude": "",
		"district": "Nord"
	},
	{
		"name": "Tagesmützel_23",
		"daycare_type": "Tagesmutter",
		"zipcode": "",
		"address": "",
		"latitude": "",
		"longitude": "",
		"district": "Südwest"
	},
	{
		"name": "Tagesmützel_25",
		"daycare_type": "Tagesmutter",
		"zipcode": "",
		"address": "",
		"latitude": "",
		"longitude": "",
		"district": "Nordost"
	},
	{
		"name": "Tagesmützel_26",
		"daycare_type": "Tagesmutter",
		"zipcode": "",
		"address": "",
		"latitude": "",
		"longitude": "",
		"district": "Nordwest"
	},
	{
		"name": "VJ - FRÖBEL",
		"daycare_type": "Tagesmutter",
		"zipcode": "",
		"address": "",
		"latitude": "",
		"longitude": "",
		"district": "Süd"
	},
	{
		"name": "VKKJ Nordwest13",
		"daycare_type": "Tagesmutter",
		"zipcode": "",
		"address": "",
		"latitude": "",
		"longitude": "",
		"district": "Nordwest"
	},
	{
		"name": "VKKJ Südwest4",
		"daycare_type": "Tagesmutter",
		"zipcode": "",
		"address": "",
		"latitude": "",
		"longitude": "",
		"district": "Südwest"
	}
]