[
	{
		"name": "Spielplatz \"Paunsdorfer Straße\"",
		"district": "Ost,Mölkau",
		"location": "Paunsdorfer Straße / Anemonenweg",
		"town": "Leipzig",
		"gaming_devices": [
			{
				"id": 1,
				"title": "Rutsche"
			},
			{
				"id": 4,
				"title": "Wippe"
			}
		],
		"equipment": [
			{
				"id": 1,
				"title": "Bänke"
			},
			{
				"id": 4,
				"title": "Sandspielfläche"
			}
		],
		"lines": "72, 73",
		"stops": "Haltestelle Anemonenweg",
		"latitude": "51.3323846",
		"longitude": "12.4392597"
	},
	{
		"name": "Spielplatz \"Abtnaundorfer Park\"",
		"district": "Schönefeld-Abtnaundorf,Nordost",
		"location": "Abtnaundorfer Straße / Heiterblickstraße",
		"town": "Leipzig",
		"gaming_devices": [
			{
				"id": 1,
				"title": "Rutsche"
			},
			{
				"id": 9,
				"title": "Reck"
			}
		],
		"equipment": [
			{
				"id": 1,
				"title": "Bänke"
			},
			{
				"id": 6,
				"title": "öffentliche Parkplätze vorhanden"
			}
		],
		"lines": "70, 79",
		"stops": "Haltestelle Heiterblickstraße",
		"latitude": "51.3688668",
		"longitude": "12.4283612"
	},
	{
		"name": "Spielplatz \"Albrecht-Dürer-Platz\"",
		"district": "Südvorstadt,Süd",
		"location": "Arthur-Hoffmann-Straße",
		"town": "Leipzig",
		"gaming_devices": [
			{
				"id": 1,
				"title": "Rutsche"
			},
			{
				"id": 10,
				"title": "Kletternetz"
			}
		],
		"equipment": [
			{
				"id": 6,
				"title": "öffentliche Parkplätze vorhanden"
			}
		],
		"lines": "9, 60",
		"stops": "Körnerstraße, Körnerstraße",
		"latitude": "51.3201581",
		"longitude": "12.3784884"
	},
	{
		"name": "Spielplatz \"Alexis-Schuhmann-Platz\"",
		"district": "Südvorstadt,Süd",
		"location": "Andreasstraße / Scharnhorststraße",
		"town": "Leipzig",
		"gaming_devices": [
			{
				"id": 8,
				"title": "Schaukel"
			}
		],
		"equipment": [
			{
				"id": 6,
				"title": "öffentliche Parkplätze vorhanden"
			}
		],
		"lines": "10, 11, 60, 74",
		"stops": "Karl-Liebknecht-Straße/Kurt-Eisner-Straße, Karl-Liebknecht-Straße/Kurt-Eisner-Straße",
		"latitude": "51.3195729",
		"longitude": "12.3757592"
	},
	{
		"name": "Spielplatz \"Alfred-Frank-Platz\"",
		"district": "Reudnitz-Thonberg,Südost",
		"location": "Lipsiusstraße / Holsteinstraße",
		"town": "Leipzig",
		"gaming_devices": [
			{
				"id": 1,
				"title": "Rutsche"
			},
			{
				"id": 15,
				"title": "Matschtisch"
			}
		],
		"equipment": [
			{
				"id": 6,
				"title": "öffentliche Parkplätze vorhanden"
			}
		],
		"lines": "4, 60, 70",
		"stops": "Haltestelle Riebeckstraße/Oststraße, Haltestelle Holsteinstraße, Haltestelle Riebeckstraße/Oststraße",
		"latitude": "51.3289108",
		"longitude": "12.4097101"
	},
	{
		"name": "Spielplatz \"Alte Gleisstraße\"",
		"district": "Plagwitz,Südwest",
		"location": "Naumburger Straße / Höhe Zollschuppen",
		"town": "Leipzig",
		"gaming_devices": [
			{
				"id": 1,
				"title": "Rutsche"
			},
			{
				"id": 17,
				"title": "Spieltonnen"
			}
		],
		"equipment": [
			{
				"id": 6,
				"title": "öffentliche Parkplätze vorhanden"
			}
		],
		"lines": "14, 60",
		"stops": "Haltestelle S-Bahnhof Plagwitz, Haltestelle Naumburger Straße",
		"latitude": "51.3396955",
		"longitude": "12.3730747"
	},
	{
		"name": "Spielplatz \"Alte Salzstraße – Am Kindergarten\"",
		"district": "Lausen-Grünau,West",
		"location": "Alte Salzstraße",
		"town": "Leipzig",
		"gaming_devices": [
			{
				"id": 8,
				"title": "Schaukel"
			}
		],
		"equipment": [
			{
				"id": 6,
				"title": "öffentliche Parkplätze vorhanden"
			}
		],
		"lines": "1, 61, 66, 80E, 161",
		"stops": "Haltestelle Zschampertaue, Haltestelle Zschampertaue",
		"latitude": "51.326078",
		"longitude": "12.3192088"
	},
	{
		"name": "Spielplatz \"Alte Salzstraße – Ballplatz\"",
		"district": "Grünau-Mitte,West",
		"location": "Alte Salzstraße",
		"town": "Leipzig",
		"gaming_devices": [
			{
				"id": 1,
				"title": "Rutsche"
			},
			{
				"id": 19,
				"title": "Tore"
			}
		],
		"equipment": [
			{
				"id": 6,
				"title": "öffentliche Parkplätze vorhanden"
			}
		],
		"lines": "65, 66",
		"stops": "Haltestelle Allee Center",
		"latitude": "51.326078",
		"longitude": "12.3192088"
	},
	{
		"name": "Spielplatz \"Alte Salzstraße – Kletterplatz\"",
		"district": "Grünau-Mitte,West",
		"location": "Alte Salzstraße",
		"town": "Leipzig",
		"gaming_devices": [
			{
				"id": 1,
				"title": "Rutsche"
			}
		],
		"equipment": [
			{
				"id": 6,
				"title": "öffentliche Parkplätze vorhanden"
			}
		],
		"lines": "65, 66",
		"stops": "Haltestelle Allee Center",
		"latitude": "51.326078",
		"longitude": "12.3192088"
	},
	{
		"name": "Spielplatz \"Alte Salzstraße\"",
		"district": "Grünau-Ost,West",
		"location": "Alte Salzstraße",
		"town": "Leipzig",
		"gaming_devices": [
			{
				"id": 1,
				"title": "Rutsche"
			},
			{
				"id": 22,
				"title": "Federplatten"
			}
		],
		"equipment": [
			{
				"id": 6,
				"title": "öffentliche Parkplätze vorhanden"
			}
		],
		"lines": "8, 15",
		"stops": "Haltestelle Parkallee",
		"latitude": "51.326078",
		"longitude": "12.3192088"
	},
	{
		"name": "Spielplatz \"Alte Theklaer Straße\"",
		"district": "Plaußig-Portitz,Nordost",
		"location": "Alte Theklaer Straße (am Garagenplatz)",
		"town": "Leipzig",
		"gaming_devices": [
			{
				"id": 1,
				"title": "Rutsche"
			},
			{
				"id": 23,
				"title": "Karussell"
			}
		],
		"equipment": [
			{
				"id": 6,
				"title": "öffentliche Parkplätze vorhanden"
			}
		],
		"lines": "83",
		"stops": "Haltestelle Alte Theklaer Straße",
		"latitude": "51.3396955",
		"longitude": "12.3730747"
	},
	{
		"name": "Spielplatz \"Althener Anger\"",
		"district": "Althen-Kleinpösna,Ost",
		"location": "Prof. Andreas-Schubert-Straße / Althener Anger",
		"town": "Leipzig",
		"gaming_devices": [
			{
				"id": 1,
				"title": "Rutsche"
			},
			{
				"id": 25,
				"title": "Kletterseil"
			}
		],
		"equipment": [
			{
				"id": 6,
				"title": "öffentliche Parkplätze vorhanden"
			}
		],
		"lines": "73, 172",
		"stops": "Haltestelle Althener Anger",
		"latitude": "51.3386604",
		"longitude": "12.5162131"
	},
	{
		"name": "Spielplatz \"Am alten Forsthaus\"",
		"district": "Wahren,Nordwest",
		"location": "Zum Waldbad / Kilometerweg",
		"town": "Leipzig",
		"gaming_devices": [
			{
				"id": 1,
				"title": "Rutsche"
			},
			{
				"id": 29,
				"title": "Gewichtdrücken"
			}
		],
		"equipment": [
			{
				"id": 6,
				"title": "öffentliche Parkplätze vorhanden"
			}
		],
		"lines": "7, 62",
		"stops": "Haltestelle Südstraße, Haltestelle Südstraße",
		"latitude": "51.3635728",
		"longitude": "12.3025705"
	},
	{
		"name": "Spielplatz \"Am Amtsgericht\"",
		"district": "Südvorstadt,Süd",
		"location": "Arndtstraße / Bernhard-Göring-Straße",
		"town": "Leipzig",
		"gaming_devices": [
			{
				"id": 20,
				"title": "Kletterhaus"
			}
		],
		"equipment": [
			{
				"id": 6,
				"title": "öffentliche Parkplätze vorhanden"
			}
		],
		"lines": "9, 60",
		"stops": "Körnerstraße, Körnerstraße",
		"latitude": "51.3195612",
		"longitude": "12.3767275"
	},
	{
		"name": "Spielplatz \"Am Angerteich\"",
		"district": "Liebertwolkwitz,Südost",
		"location": "Jahnstraße",
		"town": "Leipzig",
		"gaming_devices": [
			{
				"id": 1,
				"title": "Rutsche"
			},
			{
				"id": 30,
				"title": "Seilschaukel"
			}
		],
		"equipment": [
			{
				"id": 6,
				"title": "öffentliche Parkplätze vorhanden"
			}
		],
		"lines": "75, 172",
		"stops": "Haltestelle Schwarzes Ross",
		"latitude": "51.2850265",
		"longitude": "12.4610464"
	},
	{
		"name": "Spielplatz \"Am Auensee\"",
		"district": "Wahren,Nordwest",
		"location": "östlicher Teil des Auensee",
		"town": "Leipzig",
		"gaming_devices": [
			{
				"id": 1,
				"title": "Rutsche"
			},
			{
				"id": 37,
				"title": "Ein Teilbereich des Holzschiffes muss aufgrund von Mängeln bis auf Weiteres gesperrt bleiben."
			}
		],
		"equipment": [
			{
				"id": 1,
				"title": "Bänke"
			},
			{
				"id": 9,
				"title": "Öffentliche Parkplätze befinden sich am Hauptzugang zum Auensee."
			}
		],
		"lines": "80",
		"stops": "Haltestelle Auensee",
		"latitude": "51.3396955",
		"longitude": "12.3730747"
	},
	{
		"name": "Spielplatz \"Am Brunnen\"",
		"district": "Lützschena-Stahmeln,Nordwest",
		"location": "Am Brunnen / Elsterberg",
		"town": "Leipzig",
		"gaming_devices": [
			{
				"id": 9,
				"title": "Reck"
			}
		],
		"equipment": [
			{
				"id": 6,
				"title": "öffentliche Parkplätze vorhanden"
			}
		],
		"lines": "11",
		"stops": "Haltestelle Freirodaer Weg",
		"latitude": "51.384042",
		"longitude": "12.2700194"
	},
	{
		"name": "Spielplatz \"Am Cospudener See\"",
		"district": "Großzschocher,Südwest",
		"location": "Lauerscher Weg",
		"town": "Leipzig",
		"gaming_devices": [
			{
				"id": 1,
				"title": "Rutsche"
			},
			{
				"id": 40,
				"title": "Seile"
			}
		],
		"equipment": [
			{
				"id": 6,
				"title": "öffentliche Parkplätze vorhanden"
			}
		],
		"lines": "65",
		"stops": "Haltestelle Nordstrand",
		"latitude": "51.2865905",
		"longitude": "12.3417077"
	},
	{
		"name": "Spielplatz \"Am Dorfteich\"",
		"district": "Althen-Kleinpösna,Ost",
		"location": "Am Dorfteich / Durch die Felder",
		"town": "Leipzig",
		"gaming_devices": [
			{
				"id": 24,
				"title": "Wipptier"
			}
		],
		"equipment": [
			{
				"id": 6,
				"title": "öffentliche Parkplätze vorhanden"
			}
		],
		"lines": "73",
		"stops": "Haltestelle Kleinpösna",
		"latitude": "51.3049077",
		"longitude": "12.5106443"
	},
	{
		"name": "Spielplatz \"Am Felsenthal\"",
		"district": "Knautkleeberg-Knauthain,Südwest",
		"location": "Hagebuttenweg",
		"town": "Leipzig",
		"gaming_devices": [
			{
				"id": 1,
				"title": "Rutsche"
			},
			{
				"id": 42,
				"title": "Klettersteine"
			}
		],
		"equipment": [
			{
				"id": 6,
				"title": "öffentliche Parkplätze vorhanden"
			}
		],
		"lines": "63",
		"stops": "Haltestelle Am Klucksgraben",
		"latitude": "51.2685372",
		"longitude": "12.2918939"
	},
	{
		"name": "Spielplatz \"Am Fockeberg\"",
		"district": "Südvorstadt,Süd",
		"location": "Fockestraße",
		"town": "Leipzig",
		"gaming_devices": [
			{
				"id": 13,
				"title": "Tischtennisplatte"
			}
		],
		"equipment": [
			{
				"id": 6,
				"title": "öffentliche Parkplätze vorhanden"
			}
		],
		"lines": "9, 10, 11, 70, 89",
		"stops": "HTWK, HTWK",
		"latitude": "51.3160473",
		"longitude": "12.3656277"
	},
	{
		"name": "Spielplatz \"Am Gänseanger\"",
		"district": "Liebertwolkwitz,Südost",
		"location": "Am Gänseanger / Alte Tauchaer Straße",
		"town": "Leipzig",
		"gaming_devices": [
			{
				"id": 3,
				"title": "Klettergerüst"
			}
		],
		"equipment": [
			{
				"id": 6,
				"title": "öffentliche Parkplätze vorhanden"
			}
		],
		"lines": "172",
		"stops": "Haltestelle Roßstraße",
		"latitude": "51.28766",
		"longitude": "12.4615346"
	},
	{
		"name": "Spielplatz \"Am Garagenhof\"",
		"district": "Schönefeld-Ost,Nordost",
		"location": "Heinrich-Büchner-Straße / am Garagenhof",
		"town": "Leipzig",
		"gaming_devices": [
			{
				"id": 1,
				"title": "Rutsche"
			},
			{
				"id": 49,
				"title": "Fussballtore"
			}
		],
		"equipment": [
			{
				"id": 6,
				"title": "öffentliche Parkplätze vorhanden"
			}
		],
		"lines": "1",
		"stops": "Haltestelle Ossietzkystraße/Gorkistraße",
		"latitude": "51.3396955",
		"longitude": "12.3730747"
	},
	{
		"name": "Spielplatz \"Am Haferring\"",
		"district": "Wiederitzsch,Nord",
		"location": "Am Haferring",
		"town": "Leipzig",
		"gaming_devices": [
			{
				"id": 24,
				"title": "Wipptier"
			}
		],
		"equipment": [
			{
				"id": 6,
				"title": "öffentliche Parkplätze vorhanden"
			}
		],
		"lines": "16, 87",
		"stops": "Haltestelle Dachauer Straße, Haltestelle Dachauer Straße",
		"latitude": "51.3913866",
		"longitude": "12.3634663"
	},
	{
		"name": "Spielplatz \"Am Kindergarten\"",
		"district": "Grünau-Nord,West",
		"location": "Neptunweg",
		"town": "Leipzig",
		"gaming_devices": [
			{
				"id": 34,
				"title": "Steindino"
			}
		],
		"equipment": [
			{
				"id": 6,
				"title": "öffentliche Parkplätze vorhanden"
			}
		],
		"lines": "15",
		"stops": "Haltestelle Saturnstraße",
		"latitude": "51.3254062",
		"longitude": "12.2685109"
	},
	{
		"name": "Spielplatz \"Am kleinen Feld\"",
		"district": "Grünau-Nord,West",
		"location": "Am kleinen Feld",
		"town": "Leipzig",
		"gaming_devices": [
			{
				"id": 1,
				"title": "Rutsche"
			}
		],
		"equipment": [
			{
				"id": 6,
				"title": "öffentliche Parkplätze vorhanden"
			}
		],
		"lines": "62, 65, 66",
		"stops": "Haltestelle Am kleinen Feld",
		"latitude": "51.3180199",
		"longitude": "12.2632347"
	},
	{
		"name": "Spielplatz \"Am Klucksgraben\"",
		"district": "Knautkleeberg-Knauthain,Südwest",
		"location": "Am Klucksgraben / Büttnerweg",
		"town": "Leipzig",
		"gaming_devices": [
			{
				"id": 25,
				"title": "Kletterseil"
			}
		],
		"equipment": [
			{
				"id": 6,
				"title": "öffentliche Parkplätze vorhanden"
			}
		],
		"lines": "63",
		"stops": "Haltestelle Am Klucksgraben",
		"latitude": "51.2698648",
		"longitude": "12.2947719"
	},
	{
		"name": "Spielplatz \"Am Moosbeerweg\"",
		"district": "Knautkleeberg-Knauthain,Südwest",
		"location": "Moosbeerweg",
		"town": "Leipzig",
		"gaming_devices": [
			{
				"id": 4,
				"title": "Wippe"
			}
		],
		"equipment": [
			{
				"id": 6,
				"title": "öffentliche Parkplätze vorhanden"
			}
		],
		"lines": "63",
		"stops": "Haltestelle Am Klucksgraben",
		"latitude": "51.2671235",
		"longitude": "12.293741"
	},
	{
		"name": "Spielplatz \"Am Mückenschlößchen\"",
		"district": "Zentrum-Nordwest,Mitte",
		"location": "Am Mückenschlößchen",
		"town": "Leipzig",
		"gaming_devices": [
			{
				"id": 1,
				"title": "Rutsche"
			},
			{
				"id": 52,
				"title": "Rutschkugel"
			}
		],
		"equipment": [
			{
				"id": 6,
				"title": "öffentliche Parkplätze vorhanden"
			}
		],
		"lines": "4",
		"stops": "Haltestelle Am Mückenschlößchen",
		"latitude": "51.348291",
		"longitude": "12.3529924"
	},
	{
		"name": "Spielplatz \"Am Obstgarten\"",
		"district": "Kleinzschocher,Südwest",
		"location": "Durchgang Windorfer Straße / Kantatenweg",
		"town": "Leipzig",
		"gaming_devices": [
			{
				"id": 1,
				"title": "Rutsche"
			},
			{
				"id": 54,
				"title": "Holzfigur"
			}
		],
		"equipment": [
			{
				"id": 6,
				"title": "öffentliche Parkplätze vorhanden"
			}
		],
		"lines": "3",
		"stops": "Haltestelle Schwartzestraße",
		"latitude": "51.3171127",
		"longitude": "12.3303618"
	},
	{
		"name": "Spielplatz \"Am Ochsenweg\"",
		"district": "Burghausen-Rückmarsdorf,Alt-West",
		"location": "Ochsenweg",
		"town": "Leipzig",
		"gaming_devices": [
			{
				"id": 8,
				"title": "Schaukel"
			}
		],
		"equipment": [
			{
				"id": 6,
				"title": "öffentliche Parkplätze vorhanden"
			}
		],
		"lines": "62, 130, 131",
		"stops": "Haltestelle Löwencenter",
		"latitude": "51.3496851",
		"longitude": "12.2689786"
	},
	{
		"name": "Spielplatz \"Am Pilzanger\"",
		"district": "Knautkleeberg-Knauthain,Südwest",
		"location": "Pilzanger",
		"town": "Leipzig",
		"gaming_devices": [
			{
				"id": 1,
				"title": "Rutsche"
			},
			{
				"id": 56,
				"title": "Holzhaus"
			}
		],
		"equipment": [
			{
				"id": 6,
				"title": "öffentliche Parkplätze vorhanden"
			}
		],
		"lines": "3",
		"stops": "Haltestelle Knautkleeberg",
		"latitude": "51.2751039",
		"longitude": "12.3058869"
	},
	{
		"name": "Spielplatz \"Am Polenweg\"",
		"district": "Probstheida,Südost",
		"location": "Polenweg",
		"town": "Leipzig",
		"gaming_devices": [
			{
				"id": 23,
				"title": "Karussell"
			}
		],
		"equipment": [
			{
				"id": 6,
				"title": "öffentliche Parkplätze vorhanden"
			}
		],
		"lines": "15, 76",
		"stops": "Haltestelle Franzosenallee, Haltestelle Schweizerbogen",
		"latitude": "51.3012869",
		"longitude": "12.4400963"
	},
	{
		"name": "Spielplatz \"Am Pösgraben\"",
		"district": "Althen-Kleinpösna,Ost",
		"location": "Am Pösgraben",
		"town": "Leipzig",
		"gaming_devices": [
			{
				"id": 1,
				"title": "Rutsche"
			},
			{
				"id": 58,
				"title": "Holztische und Stühle"
			}
		],
		"equipment": [
			{
				"id": 6,
				"title": "öffentliche Parkplätze vorhanden"
			}
		],
		"lines": "73",
		"stops": "Haltestelle Kleinpösna",
		"latitude": "51.3045624",
		"longitude": "12.5151594"
	},
	{
		"name": "Spielplatz \"Am Rehbacher Anger\"",
		"district": "Hartmannsdorf-Knautnaundorf,Südwest",
		"location": "Rehbacher Anger",
		"town": "Leipzig",
		"gaming_devices": [
			{
				"id": 27,
				"title": "Sitzkarussell"
			}
		],
		"equipment": [
			{
				"id": 6,
				"title": "öffentliche Parkplätze vorhanden"
			}
		],
		"lines": "120",
		"stops": "Haltestelle Rehbach",
		"latitude": "51.2728967",
		"longitude": "12.2791997"
	},
	{
		"name": "Spielplatz \"Am Robert-Schumann-Gymnasium\"",
		"district": "Altlindenau,Alt-West",
		"location": "Demmeringstraße",
		"town": "Leipzig",
		"gaming_devices": [
			{
				"id": 13,
				"title": "Tischtennisplatte"
			}
		],
		"equipment": [
			{
				"id": 6,
				"title": "öffentliche Parkplätze vorhanden"
			}
		],
		"lines": "8, 15",
		"stops": "Haltestelle Henriettenstraße",
		"latitude": "51.3349535",
		"longitude": "12.3231163"
	},
	{
		"name": "Spielplatz \"Am Schwarzdornweg\"",
		"district": "Knautkleeberg-Knauthain,Südwest",
		"location": "Schwarzdornweg",
		"town": "Leipzig",
		"gaming_devices": [
			{
				"id": 25,
				"title": "Kletterseil"
			}
		],
		"equipment": [
			{
				"id": 6,
				"title": "öffentliche Parkplätze vorhanden"
			}
		],
		"lines": "63",
		"stops": "Haltestelle Am Klucksgraben",
		"latitude": "51.2679653",
		"longitude": "12.2962293"
	},
	{
		"name": "Spielplatz \"Am Tschechenbogen\"",
		"district": "Probstheida,Südost",
		"location": "Tschechenbogen",
		"town": "Leipzig",
		"gaming_devices": [
			{
				"id": 8,
				"title": "Schaukel"
			}
		],
		"equipment": [
			{
				"id": 6,
				"title": "öffentliche Parkplätze vorhanden"
			}
		],
		"lines": "15, 76",
		"stops": "Haltestelle Franzosenallee, Haltestelle Schweizerbogen",
		"latitude": "51.3012917",
		"longitude": "12.4384277"
	},
	{
		"name": "Spielplatz \"Am Übergang\"",
		"district": "Grünau-Ost,West",
		"location": "Am Übergang",
		"town": "Leipzig",
		"gaming_devices": [
			{
				"id": 1,
				"title": "Rutsche"
			},
			{
				"id": 62,
				"title": "Fußballtore"
			}
		],
		"equipment": [
			{
				"id": 6,
				"title": "öffentliche Parkplätze vorhanden"
			}
		],
		"lines": "8, 15",
		"stops": "Haltestelle Grünauer Allee",
		"latitude": "51.3217887",
		"longitude": "12.3045583"
	},
	{
		"name": "Spielplatz \"Am Wasserschloß\"",
		"district": "Leutzsch,Alt-West",
		"location": "Am Wasserschloß",
		"town": "Leipzig",
		"gaming_devices": [
			{
				"id": 61,
				"title": "Streetballkorb"
			}
		],
		"equipment": [
			{
				"id": 6,
				"title": "öffentliche Parkplätze vorhanden"
			}
		],
		"lines": "7, 67",
		"stops": "Haltestelle Rathaus Leutzsch, Haltestelle Rathaus Leutzsch",
		"latitude": "51.3487692",
		"longitude": "12.3167273"
	},
	{
		"name": "Spielplatz \"Ampéreweg\"",
		"district": "Stötteritz,Südost",
		"location": "Ampéreweg / Jouleweg",
		"town": "Leipzig",
		"gaming_devices": [
			{
				"id": 13,
				"title": "Tischtennisplatte"
			}
		],
		"equipment": [
			{
				"id": 6,
				"title": "öffentliche Parkplätze vorhanden"
			}
		],
		"lines": "4",
		"stops": "Haltestelle Holzhäuser Straße",
		"latitude": "51.3213318",
		"longitude": "12.4331806"
	},
	{
		"name": "Spielplatz \"An den Gleisen'",
		"district": "Grünau-Mitte,West",
		"location": "Höhe Ulmer Straße",
		"town": "Leipzig",
		"gaming_devices": [
			{
				"id": 25,
				"title": "Kletterseil"
			}
		],
		"equipment": [
			{
				"id": 6,
				"title": "öffentliche Parkplätze vorhanden"
			}
		],
		"lines": "8, 15, 61, 65, 66, 80E, 161",
		"stops": "Haltestelle Schönauer Ring, Haltestelle Schönauer Ring",
		"latitude": "51.3198799",
		"longitude": "12.2856425"
	},
	{
		"name": "Spielplatz \"An den Linden\"",
		"district": "Burghausen-Rückmarsdorf,Alt-West",
		"location": "An den Linden / Tucholskystraße",
		"town": "Leipzig",
		"gaming_devices": [
			{
				"id": 4,
				"title": "Wippe"
			}
		],
		"equipment": [
			{
				"id": 6,
				"title": "öffentliche Parkplätze vorhanden"
			}
		],
		"lines": "130, 131",
		"stops": "Haltestelle Zum Bahnhof",
		"latitude": "51.3434498",
		"longitude": "12.2745964"
	},
	{
		"name": "Spielplatz \"An der AOK\"",
		"district": "Schleußig,Südwest",
		"location": "Anton-Bruckner-Allee / im Clara-Zetkin-Park",
		"town": "Leipzig",
		"gaming_devices": [
			{
				"id": 1,
				"title": "Rutsche"
			},
			{
				"id": 70,
				"title": "Skaterbereich"
			}
		],
		"equipment": [
			{
				"id": 6,
				"title": "öffentliche Parkplätze vorhanden"
			}
		],
		"lines": "1, 2",
		"stops": "Holbeinstraße",
		"latitude": "51.3396955",
		"longitude": "12.3730747"
	},
	{
		"name": "Spielplatz \"An der Badeanlage\"",
		"district": "Liebertwolkwitz,Südost",
		"location": "Zur Kuhweide",
		"town": "Leipzig",
		"gaming_devices": [
			{
				"id": 1,
				"title": "Rutsche"
			},
			{
				"id": 72,
				"title": "Skaterrampe"
			}
		],
		"equipment": [
			{
				"id": 6,
				"title": "öffentliche Parkplätze vorhanden"
			}
		],
		"lines": "75",
		"stops": "Haltestelle Zur Alten Sandgrube",
		"latitude": "51.2785124",
		"longitude": "12.4641576"
	},
	{
		"name": "Spielplatz \"An der Fröbel-Schule\"",
		"district": "Grünau-Mitte,West",
		"location": "Alte Salzstraße / Mannheimer Straße",
		"town": "Leipzig",
		"gaming_devices": [
			{
				"id": 47,
				"title": "Wipptiere"
			}
		],
		"equipment": [
			{
				"id": 6,
				"title": "öffentliche Parkplätze vorhanden"
			}
		],
		"lines": "61, 66, 80E, 161",
		"stops": "Haltestelle Alte Salzstraße",
		"latitude": "51.3141198",
		"longitude": "12.2858067"
	},
	{
		"name": "Spielplatz \"An der Grundschule\"",
		"district": "Engelsdorf,Ost",
		"location": "An der Grundschule",
		"town": "Leipzig",
		"gaming_devices": [
			{
				"id": 2,
				"title": "Doppelschaukel"
			}
		],
		"equipment": [
			{
				"id": 6,
				"title": "öffentliche Parkplätze vorhanden"
			}
		],
		"lines": "72",
		"stops": "Haltestelle Klempererstraße",
		"latitude": "51.3414736",
		"longitude": "12.4876091"
	},
	{
		"name": "Spielplatz \"An der Helmholtzschule\"",
		"district": "Lindenau,Alt-West",
		"location": "Helmholtzstraße",
		"town": "Leipzig",
		"gaming_devices": [
			{
				"id": 69,
				"title": "Streetballplatz"
			}
		],
		"equipment": [
			{
				"id": 6,
				"title": "öffentliche Parkplätze vorhanden"
			}
		],
		"lines": "8, 15",
		"stops": "Haltestelle Henriettenstraße",
		"latitude": "51.3324783",
		"longitude": "12.3297667"
	},
	{
		"name": "Spielplatz \"An der Kirche\"",
		"district": "Holzhausen,Südost",
		"location": "An der Kirche / Hauptstraße",
		"town": "Leipzig",
		"gaming_devices": [
			{
				"id": 5,
				"title": "Kletter- und Rutschturm"
			}
		],
		"equipment": [
			{
				"id": 6,
				"title": "öffentliche Parkplätze vorhanden"
			}
		],
		"lines": "74, 172",
		"stops": "Haltestelle Hauptstraße",
		"latitude": "51.3110072",
		"longitude": "12.4653243"
	},
	{
		"name": "Spielplatz \"An der Märchenwiese \"",
		"district": "Marienbrunn,Süd",
		"location": "An der Märchenwiese",
		"town": "Leipzig",
		"gaming_devices": [
			{
				"id": 65,
				"title": "Hängebrücke"
			}
		],
		"equipment": [
			{
				"id": 6,
				"title": "öffentliche Parkplätze vorhanden"
			}
		],
		"lines": "10, 16",
		"stops": "Haltestelle An der Märchenwiese",
		"latitude": "51.3061752",
		"longitude": "12.3964745"
	},
	{
		"name": "Spielplatz \"An der Parkallee – Holzplatz\"",
		"district": "Grünau-Ost,West",
		"location": "Parkallee ",
		"town": "Leipzig",
		"gaming_devices": [
			{
				"id": 1,
				"title": "Rutsche"
			},
			{
				"id": 76,
				"title": "Holz- und Klettertier Nashorn"
			}
		],
		"equipment": [
			{
				"id": 6,
				"title": "öffentliche Parkplätze vorhanden"
			}
		],
		"lines": "8, 15",
		"stops": "Haltestelle Parkallee",
		"latitude": "51.3247841",
		"longitude": "12.2954956"
	},
	{
		"name": "Spielplatz \"An der Parkallee – Tischtennisplatz\"",
		"district": "Grünau-Ost,West",
		"location": "Parkallee",
		"town": "Leipzig",
		"gaming_devices": [
			{
				"id": 60,
				"title": "Tischtennisplatten"
			}
		],
		"equipment": [
			{
				"id": 6,
				"title": "öffentliche Parkplätze vorhanden"
			}
		],
		"lines": "8, 15, 61, 161",
		"stops": "Haltestelle Parkallee, Haltestelle Weißdornstraße",
		"latitude": "51.3247841",
		"longitude": "12.2954956"
	},
	{
		"name": "Spielplatz \"An der Schule\"",
		"district": "Lindenthal,Nordwest",
		"location": "An der Schule",
		"town": "Leipzig",
		"gaming_devices": [
			{
				"id": 69,
				"title": "Streetballplatz"
			}
		],
		"equipment": [
			{
				"id": 6,
				"title": "öffentliche Parkplätze vorhanden"
			}
		],
		"lines": "87, 88, 90",
		"stops": "Haltestelle An der Schule",
		"latitude": "51.392062",
		"longitude": "12.3332454"
	},
	{
		"name": "Spielplatz \"An der Wendeschleife\"",
		"district": "Marienbrunn,Süd",
		"location": "An der Märchenwiese (Wendeschleife)",
		"town": "Leipzig",
		"gaming_devices": [
			{
				"id": 1,
				"title": "Rutsche"
			},
			{
				"id": 79,
				"title": "2 Tischtennisplatten"
			}
		],
		"equipment": [
			{
				"id": 6,
				"title": "öffentliche Parkplätze vorhanden"
			}
		],
		"lines": "10, 16",
		"stops": "Haltestelle An der Märchenwiese",
		"latitude": "51.3396955",
		"longitude": "12.3730747"
	},
	{
		"name": "Spielplatz \"Andromedaweg\"",
		"district": "Grünau-Nord,West",
		"location": "Andromedaweg",
		"town": "Leipzig",
		"gaming_devices": [
			{
				"id": 1,
				"title": "Rutsche"
			},
			{
				"id": 80,
				"title": "Kletterpyramide"
			}
		],
		"equipment": [
			{
				"id": 6,
				"title": "öffentliche Parkplätze vorhanden"
			}
		],
		"lines": "15, 62, 65, 66",
		"stops": "Haltestelle Plovdiver Straße, Haltestelle Plovdiver Straße",
		"latitude": "51.3191831",
		"longitude": "12.2704691"
	},
	{
		"name": "Spielplatz \"Apostelstraße\"",
		"district": "Altlindenau,Alt-West",
		"location": "Apostelstraße",
		"town": "Leipzig",
		"gaming_devices": [
			{
				"id": 1,
				"title": "Rutsche"
			},
			{
				"id": 82,
				"title": "Spielkiste"
			}
		],
		"equipment": [
			{
				"id": 6,
				"title": "öffentliche Parkplätze vorhanden"
			}
		],
		"lines": "7, 130, 131",
		"stops": "Georg-Schwarz-Straße/Merseburger Straße, Georg-Schwarz-Straße/Merseburger Straße",
		"latitude": "51.3373924",
		"longitude": "12.3291953"
	},
	{
		"name": "Spielplatz \"Arnoldplatz - Ballplatz\"",
		"district": "Engelsdorf,Ost",
		"location": "Arnoldplatz ",
		"town": "Leipzig",
		"gaming_devices": [
			{
				"id": 1,
				"title": "Rutsche"
			},
			{
				"id": 83,
				"title": "Torwand"
			}
		],
		"equipment": [
			{
				"id": 6,
				"title": "öffentliche Parkplätze vorhanden"
			}
		],
		"lines": "73, 172, 175",
		"stops": "Haltetstelle Sabinenstraße",
		"latitude": "51.3479408",
		"longitude": "12.4928504"
	},
	{
		"name": "Spielplatz \"Arnoldplatz - Kletterplatz\"",
		"district": "Engelsdorf,Ost",
		"location": "Arnoldplatz",
		"town": "Leipzig",
		"gaming_devices": [
			{
				"id": 56,
				"title": "Holzhaus"
			}
		],
		"equipment": [
			{
				"id": 6,
				"title": "öffentliche Parkplätze vorhanden"
			}
		],
		"lines": "73, 172, 175",
		"stops": "Haltestelle Sabinenstraße",
		"latitude": "51.3479408",
		"longitude": "12.4928504"
	},
	{
		"name": "Spielplatz \"Arthur-Nagel-Straße\"",
		"district": "Großzschocher,Südwest",
		"location": "Arthur-Nagel-Straße",
		"town": "Leipzig",
		"gaming_devices": [
			{
				"id": 61,
				"title": "Streetballkorb"
			}
		],
		"equipment": [
			{
				"id": 6,
				"title": "öffentliche Parkplätze vorhanden"
			}
		],
		"lines": "3",
		"stops": "Haltestelle Arthur-Nagel-Straße",
		"latitude": "51.3072439",
		"longitude": "12.3220419"
	},
	{
		"name": "Spielplatz \"Arthur-Polenz-Straße\"",
		"district": "Holzhausen,Südost",
		"location": "Arthur-Polenz-Straße",
		"town": "Leipzig",
		"gaming_devices": [
			{
				"id": 1,
				"title": "Rutsche"
			},
			{
				"id": 86,
				"title": "Federsitz"
			}
		],
		"equipment": [
			{
				"id": 6,
				"title": "öffentliche Parkplätze vorhanden"
			}
		],
		"lines": "74",
		"stops": "Arthur-Polenz-Straße",
		"latitude": "51.3059559",
		"longitude": "12.4561384"
	},
	{
		"name": "Spielplatz \"Auerbachplatz\"",
		"district": "Gohlis-Süd,Nord",
		"location": "Auerbachplatz",
		"town": "Leipzig",
		"gaming_devices": [
			{
				"id": 13,
				"title": "Tischtennisplatte"
			}
		],
		"equipment": [
			{
				"id": 6,
				"title": "öffentliche Parkplätze vorhanden"
			}
		],
		"lines": "10, 11, 12, S10",
		"stops": "Haltestelle Georg-Schuhmann-Straße/Lützowstraße, Haltestelle Gohlis",
		"latitude": "51.3081022",
		"longitude": "12.3733291"
	},
	{
		"name": "Spielplatz \"August-Bebel-Platz\"",
		"district": "Engelsdorf,Ost",
		"location": "Baumeister-Günther-Straße",
		"town": "Leipzig",
		"gaming_devices": [
			{
				"id": 2,
				"title": "Doppelschaukel"
			}
		],
		"equipment": [
			{
				"id": 6,
				"title": "öffentliche Parkplätze vorhanden"
			}
		],
		"lines": "72, 172",
		"stops": "Haltestelle Arthur-Winkler-Straße",
		"latitude": "51.3340299",
		"longitude": "12.4783219"
	},
	{
		"name": "Spielplatz \"August-Scheibe-Straße\"",
		"district": "Liebertwolkwitz,Südost",
		"location": "August-Scheibe-Straße / Carl-Munde-Straße",
		"town": "Leipzig",
		"gaming_devices": [
			{
				"id": 59,
				"title": "Rutschturm"
			}
		],
		"equipment": [
			{
				"id": 6,
				"title": "öffentliche Parkplätze vorhanden"
			}
		],
		"lines": "75, 143",
		"stops": "Haltestelle Störmthaler Straße",
		"latitude": "51.277988",
		"longitude": "12.4668539"
	},
	{
		"name": "Spielplatz \"Azaleenweg\"",
		"district": "Südost,Holzhausen",
		"location": "Azaleenweg",
		"town": "Leipzig",
		"gaming_devices": [
			{
				"id": 1,
				"title": "Rutsche"
			},
			{
				"id": 87,
				"title": "Holzeidechse"
			}
		],
		"equipment": [
			{
				"id": 1,
				"title": "Bänke"
			},
			{
				"id": 22,
				"title": "öffentliche Parkplätze sind vorhanden"
			}
		],
		"lines": "74, 172",
		"stops": "Haltestelle Sächisches Haus",
		"latitude": "51.3051188",
		"longitude": "12.4637168"
	},
	{
		"name": "Spielplatz \"Baalsdorfer Anger\"",
		"district": "Baalsdorf,Ost",
		"location": "Baalsdorfer Anger",
		"town": "Leipzig",
		"gaming_devices": [
			{
				"id": 3,
				"title": "Klettergerüst"
			}
		],
		"equipment": [
			{
				"id": 6,
				"title": "öffentliche Parkplätze vorhanden"
			}
		],
		"lines": "73, 172",
		"stops": "Haltestelle Baalsdorfer Straße",
		"latitude": "51.3227301",
		"longitude": "12.4843066"
	},
	{
		"name": "Spielplatz \"Balduinplatz\"",
		"district": "Baalsdorf,Ost",
		"location": "Kurt-Hänselmann-Weg",
		"town": "Leipzig",
		"gaming_devices": [
			{
				"id": 24,
				"title": "Wipptier"
			}
		],
		"equipment": [
			{
				"id": 6,
				"title": "öffentliche Parkplätze vorhanden"
			}
		],
		"lines": "73, 172",
		"stops": "Haltestelle Baalsdorfer Straße",
		"latitude": "51.3208158",
		"longitude": "12.47621"
	},
	{
		"name": "Spielplatz \"Balzacstraße\"",
		"district": "Zentrum-Nord,Mitte",
		"location": "Balzacstraße",
		"town": "Leipzig",
		"gaming_devices": [
			{
				"id": 1,
				"title": "Rutsche"
			},
			{
				"id": 92,
				"title": "öffentliche Parkplätze vorhanden"
			}
		],
		"equipment": [
			{
				"id": 6,
				"title": "öffentliche Parkplätze vorhanden"
			}
		],
		"lines": "10, 11, 16",
		"stops": "Haltestelle Chausseehaus",
		"latitude": "51.3545737",
		"longitude": "12.3746051"
	},
	{
		"name": "Spielplatz \"Bausestraße\"",
		"district": "Neulindenau,Alt-West",
		"location": "Bausestraße / Groitzscher Straße",
		"town": "Leipzig",
		"gaming_devices": [
			{
				"id": 1,
				"title": "Rutsche"
			},
			{
				"id": 94,
				"title": "Kletterkamel"
			}
		],
		"equipment": [
			{
				"id": 6,
				"title": "öffentliche Parkplätze vorhanden"
			}
		],
		"lines": "8, 15, 80",
		"stops": "Haltestelle Radiusstraße, Haltetelle Radiusstraße",
		"latitude": "51.3292804",
		"longitude": "12.3177768"
	},
	{
		"name": "Spielplatz \"Bernhardiplatz\"",
		"district": "Neustadt-Neuschönefeld,Ost",
		"location": "Lilienstraße",
		"town": "Leipzig",
		"gaming_devices": [
			{
				"id": 61,
				"title": "Streetballkorb"
			}
		],
		"equipment": [
			{
				"id": 6,
				"title": "öffentliche Parkplätze vorhanden"
			}
		],
		"lines": "4, 7, 70, 72, 73",
		"stops": "Haltestelle Koehlerstraße, Haltestelle Koehlerstraße",
		"latitude": "51.3400432",
		"longitude": "12.4047251"
	},
	{
		"name": "Spielplatz \"Bielagarten\"",
		"district": "Böhlitz-Ehrenberg,Alt-West",
		"location": "Bielastraße",
		"town": "Leipzig",
		"gaming_devices": [
			{
				"id": 13,
				"title": "Tischtennisplatte"
			}
		],
		"equipment": [
			{
				"id": 6,
				"title": "öffentliche Parkplätze vorhanden"
			}
		],
		"lines": "7, 62",
		"stops": "Haltestelle Südstraße, Haltestelle Südstraße",
		"latitude": "51.355515",
		"longitude": "12.2899347"
	},
	{
		"name": "Spielplatz \"Bienitzstraße\"",
		"district": "Burghausen-Rückmarsdorf,Alt-West",
		"location": "Bienitzstraße",
		"town": "Leipzig",
		"gaming_devices": [
			{
				"id": 2,
				"title": "Doppelschaukel"
			}
		],
		"equipment": [
			{
				"id": 6,
				"title": "öffentliche Parkplätze vorhanden"
			}
		],
		"lines": "62",
		"stops": "Haltestelle Burghausen",
		"latitude": "51.3535661",
		"longitude": "12.2561311"
	},
	{
		"name": "Spielplatz \"Bismarckstraße\"",
		"district": "Großzschocher,Südwest",
		"location": "Bismarckstraße",
		"town": "Leipzig",
		"gaming_devices": [
			{
				"id": 1,
				"title": "Rutsche"
			},
			{
				"id": 100,
				"title": "Torstäbe"
			}
		],
		"equipment": [
			{
				"id": 6,
				"title": "öffentliche Parkplätze vorhanden"
			}
		],
		"lines": "3",
		"stops": "Haltestelle Kunzestraße",
		"latitude": "51.304632",
		"longitude": "12.3228661"
	},
	{
		"name": "Spielplatz \"Brackestraße\"",
		"district": "Lausen-Grünau,West",
		"location": "Brackestraße ",
		"town": "Leipzig",
		"gaming_devices": [
			{
				"id": 10,
				"title": "Kletternetz"
			}
		],
		"equipment": [
			{
				"id": 6,
				"title": "öffentliche Parkplätze vorhanden"
			}
		],
		"lines": "62, 66",
		"stops": "Haltestelle Selliner Straße - Gesundheitszentrum",
		"latitude": "51.313007",
		"longitude": "12.2663839"
	},
	{
		"name": "Spielplatz \"Brückenplatz\"",
		"district": "Lindenau,Alt-West",
		"location": "Gießerbrücke / Gießerstraße",
		"town": "Leipzig",
		"gaming_devices": [
			{
				"id": 1,
				"title": "Rutsche"
			},
			{
				"id": 104,
				"title": " "
			}
		],
		"equipment": [
			{
				"id": 6,
				"title": "öffentliche Parkplätze vorhanden"
			}
		],
		"lines": "8, 15",
		"stops": "Haltestelle Henriettenstraße",
		"latitude": "51.323773",
		"longitude": "12.3268262"
	},
	{
		"name": "Spielplatz \"Bürgerpark Sternsiedlung\"",
		"district": "Möckern,Nordwest",
		"location": "Defoestraße / Travniker Straße",
		"town": "Leipzig",
		"gaming_devices": [
			{
				"id": 13,
				"title": "Tischtennisplatte"
			}
		],
		"equipment": [
			{
				"id": 6,
				"title": "öffentliche Parkplätze vorhanden"
			}
		],
		"lines": "80, 90, S10",
		"stops": "Haltestelle Sternsiedlung Nord, Haltestelle Slevogtstraße",
		"latitude": "51.3773439",
		"longitude": "12.3305202"
	},
	{
		"name": "Spielplatz \"Das KinderReich\"- Agra",
		"district": "Dölitz-Dösen,Süd",
		"location": "Im Dölitzer Holz",
		"town": "Leipzig",
		"gaming_devices": [
			{
				"id": 103,
				"title": "Wasserpumpe"
			}
		],
		"equipment": [
			{
				"id": 6,
				"title": "öffentliche Parkplätze vorhanden"
			}
		],
		"lines": "11",
		"stops": "Haltestelle Leinestraße",
		"latitude": "51.2873534",
		"longitude": "12.3842953"
	},
	{
		"name": "Spielplatz \"Deiwitzweg – Kletterplatz\"",
		"district": "Lausen-Grünau,West",
		"location": "Deiwitzweg /Alte Salzstraße",
		"town": "Leipzig",
		"gaming_devices": [
			{
				"id": 1,
				"title": "Rutsche"
			},
			{
				"id": 105,
				"title": "Federwippe"
			}
		],
		"equipment": [
			{
				"id": 6,
				"title": "öffentliche Parkplätze vorhanden"
			}
		],
		"lines": "1, 61, 66, 80E, 161",
		"stops": "Krakauer Straße, Schönauer Ring",
		"latitude": "51.326078",
		"longitude": "12.3192088"
	},
	{
		"name": "Spielplatz \"Deiwitzweg – Sandplatz\"",
		"district": "Lausen-Grünau,West",
		"location": "Alte Salzstraße / Deiwitzweg",
		"town": "Leipzig",
		"gaming_devices": [
			{
				"id": 105,
				"title": "Federwippe"
			}
		],
		"equipment": [
			{
				"id": 6,
				"title": "öffentliche Parkplätze vorhanden"
			}
		],
		"lines": "1, 61, 66, 80E, 161",
		"stops": "Haltestelle Krakauer Straße, Haltestelle Krakauer Straße",
		"latitude": "51.3101511",
		"longitude": "12.2696594"
	},
	{
		"name": "Spielplatz \"Demmeringstraße\"",
		"district": "Neulindenau,Alt-West",
		"location": "Demmeringstraße / Radiusstraße",
		"town": "Leipzig",
		"gaming_devices": [
			{
				"id": 80,
				"title": "Kletterpyramide"
			}
		],
		"equipment": [
			{
				"id": 6,
				"title": "öffentliche Parkplätze vorhanden"
			}
		],
		"lines": "8, 15, 80",
		"stops": "Haltestelle Radiusstraße, Haltestelle Radiusstraße",
		"latitude": "51.3297034",
		"longitude": "12.3130191"
	},
	{
		"name": "Spielplatz \"Die Nonne\"",
		"district": "Schleußig,Südwest",
		"location": "Nonnenweg",
		"town": "Leipzig",
		"gaming_devices": [
			{
				"id": 1,
				"title": "Rutsche"
			},
			{
				"id": 108,
				"title": "Minireck"
			}
		],
		"equipment": [
			{
				"id": 6,
				"title": "öffentliche Parkplätze vorhanden"
			}
		],
		"lines": "1, 2, 74",
		"stops": "Haltestelle Stieglitzstraße, Haltestelle Stieglitzstraße",
		"latitude": "51.3237829",
		"longitude": "12.3472887"
	},
	{
		"name": "Spielplatz \"Döllingstraße\"",
		"district": "Paunsdorf,Ost",
		"location": "Döllingstraße",
		"town": "Leipzig",
		"gaming_devices": [
			{
				"id": 59,
				"title": "Rutschturm"
			}
		],
		"equipment": [
			{
				"id": 6,
				"title": "öffentliche Parkplätze vorhanden"
			}
		],
		"lines": "7, 8, 79, 90",
		"stops": "Haltestelle Theodor-Heuss-Straße, Haltestelle Theodor-Heuss-Straße",
		"latitude": "51.3475789",
		"longitude": "12.4511293"
	},
	{
		"name": "Spielplatz \"Don Quichotte\"",
		"district": "Schönau,West",
		"location": "Lindennaundorfer Weg",
		"town": "Leipzig",
		"gaming_devices": [
			{
				"id": 1,
				"title": "Rutsche"
			},
			{
				"id": 111,
				"title": "Holzfiguren"
			}
		],
		"equipment": [
			{
				"id": 6,
				"title": "öffentliche Parkplätze vorhanden"
			}
		],
		"lines": "8, 15, 61, 65, 66, 80E, 161",
		"stops": "Haltestelle Schönauer Ring, Haltestelle Schönauer Ring",
		"latitude": "51.3276597",
		"longitude": "12.2847847"
	},
	{
		"name": "Spielplatz \"Dorfanger Hohenheida\"",
		"district": "Seehausen,Nord",
		"location": "Am Anger / An der Hauptstraße",
		"town": "Leipzig",
		"gaming_devices": [
			{
				"id": 1,
				"title": "Rutsche"
			},
			{
				"id": 112,
				"title": "Holztiere"
			}
		],
		"equipment": [
			{
				"id": 6,
				"title": "öffentliche Parkplätze vorhanden"
			}
		],
		"lines": "86, 176",
		"stops": "Haltestelle Am Anger",
		"latitude": "51.3110072",
		"longitude": "12.4653243"
	},
	{
		"name": "Spielplatz \"Dorotheenring\"",
		"district": "Liebertwolkwitz,Südost",
		"location": "Dorotheenring / Auguste-Schulze-Straße",
		"town": "Leipzig",
		"gaming_devices": [
			{
				"id": 4,
				"title": "Wippe"
			}
		],
		"equipment": [
			{
				"id": 6,
				"title": "öffentliche Parkplätze vorhanden"
			}
		],
		"lines": "75",
		"stops": "Haltestelle Zur Alten Sandgrube",
		"latitude": "51.2813186",
		"longitude": "12.4607636"
	},
	{
		"name": "Spielplatz \"Drei Bären - Arthur-Bretschneider-Park\"",
		"district": "Eutritzsch,Nord",
		"location": "Geibelstraße / Coppistraße",
		"town": "Leipzig",
		"gaming_devices": [
			{
				"id": 2,
				"title": "Doppelschaukel"
			}
		],
		"equipment": [
			{
				"id": 6,
				"title": "öffentliche Parkplätze vorhanden"
			}
		],
		"lines": "16, 12, 85, 90",
		"stops": "Eutritzsch Zentrum, Virchow-/ Coppistraße, Virchow-/ Coppistraße, Kleiststraße",
		"latitude": "51.3668885",
		"longitude": "12.3758657"
	},
	{
		"name": "Spielplatz \"Dunkler Wald\"",
		"district": "Volkmarsdorf,Ost",
		"location": "Nathalienstraße",
		"town": "Leipzig",
		"gaming_devices": [
			{
				"id": 60,
				"title": "Tischtennisplatten"
			}
		],
		"equipment": [
			{
				"id": 6,
				"title": "öffentliche Parkplätze vorhanden"
			}
		],
		"lines": "7",
		"stops": "Haltestelle Wiebelstraße",
		"latitude": "51.3396955",
		"longitude": "12.3730747"
	},
	{
		"name": "Spielplatz \"Edengarten\"",
		"district": "Liebertwolkwitz,Südost",
		"location": "Schäferweg",
		"town": "Leipzig",
		"gaming_devices": [
			{
				"id": 1,
				"title": "Rutsche"
			},
			{
				"id": 116,
				"title": "Kletterpodest mit Rutschstange"
			}
		],
		"equipment": [
			{
				"id": 6,
				"title": "öffentliche Parkplätze vorhanden"
			}
		],
		"lines": "75, 143",
		"stops": "Haltestelle Eulengraben",
		"latitude": "51.2761837",
		"longitude": "12.4799232"
	},
	{
		"name": "Spielplatz \"Eisenschmidtplatz\"",
		"district": "Holzhausen,Südost",
		"location": "Parkstraße",
		"town": "Leipzig",
		"gaming_devices": [
			{
				"id": 8,
				"title": "Schaukel"
			}
		],
		"equipment": [
			{
				"id": 6,
				"title": "öffentliche Parkplätze vorhanden"
			}
		],
		"lines": "2, 15, 75, 172",
		"stops": "Haltestelle Meusdorf, Haltestelle Meusdorf",
		"latitude": "51.2986414",
		"longitude": "12.4466051"
	},
	{
		"name": "Spielplatz \"Elefantenplatz im Arthur-Bretschneider-Park\"",
		"district": "Eutritzsch,Nord",
		"location": "Gottschallstraße / Geibelstraße",
		"town": "Leipzig",
		"gaming_devices": [
			{
				"id": 4,
				"title": "Wippe"
			}
		],
		"equipment": [
			{
				"id": 6,
				"title": "öffentliche Parkplätze vorhanden"
			}
		],
		"lines": "12, 16, 85, 90",
		"stops": "Gottschallstraße, Eutritzsch Markt, Gottschallstraße, Kleiststraße",
		"latitude": "51.3640476",
		"longitude": "12.3808804"
	},
	{
		"name": "Spielplatz \"Elsapark\"",
		"district": "Neustadt-Neuschönefeld,Ost",
		"location": "Elsastraße",
		"town": "Leipzig",
		"gaming_devices": [
			{
				"id": 15,
				"title": "Matschtisch"
			}
		],
		"equipment": [
			{
				"id": 6,
				"title": "öffentliche Parkplätze vorhanden"
			}
		],
		"lines": "1, 3, 8, 72, 73",
		"stops": "Haltestelle Hermann-Liebmann-Straße/Eisenbahnstraße, Haltestelle Elsastraße",
		"latitude": "51.3432898",
		"longitude": "12.3999158"
	},
	{
		"name": "Spielplatz \"Emil-Kluge-Park\"",
		"district": "Liebertwolkwitz,Südost",
		"location": "Emil-Kluge-Straße",
		"town": "Leipzig",
		"gaming_devices": [
			{
				"id": 61,
				"title": "Streetballkorb"
			}
		],
		"equipment": [
			{
				"id": 6,
				"title": "öffentliche Parkplätze vorhanden"
			}
		],
		"lines": "75",
		"stops": "Haltestelle Störmthaler Straße",
		"latitude": "51.2770805",
		"longitude": "12.4715259"
	},
	{
		"name": "Spielplatz \"Emmauskirchplatz\"",
		"district": "Sellerhausen-Stünz,Ost",
		"location": "Emmauskirchplatz",
		"town": "Leipzig",
		"gaming_devices": [
			{
				"id": 24,
				"title": "Wipptier"
			}
		],
		"equipment": [
			{
				"id": 6,
				"title": "öffentliche Parkplätze vorhanden"
			}
		],
		"lines": "7, 8, 77",
		"stops": "Haltestelle Emmausstraße, Haltestelle Emmausstraße",
		"latitude": "51.3396955",
		"longitude": "12.3730747"
	},
	{
		"name": "Spielplatz \"Emmausstraße\"",
		"district": "Sellerhausen-Stünz,Ost",
		"location": "Emmausstraße",
		"town": "Leipzig",
		"gaming_devices": [
			{
				"id": 60,
				"title": "Tischtennisplatten"
			}
		],
		"equipment": [
			{
				"id": 6,
				"title": "öffentliche Parkplätze vorhanden"
			}
		],
		"lines": "7, 8, 77",
		"stops": "Haltestelle Emmausstraße, Haltestelle Emmausstraße",
		"latitude": "51.3427021",
		"longitude": "12.4283958"
	},
	{
		"name": "Spielplatz \"Engelsdorfer Park - Am Rodelhügel\"",
		"district": "Engelsdorf,Ost",
		"location": "Arthur-Winkler-Straße",
		"town": "Leipzig",
		"gaming_devices": [
			{
				"id": 2,
				"title": "Doppelschaukel"
			}
		],
		"equipment": [
			{
				"id": 6,
				"title": "öffentliche Parkplätze vorhanden"
			}
		],
		"lines": "72, 172",
		"stops": "Haltestelle Arthur-Winkler-Straße",
		"latitude": "51.336494",
		"longitude": "12.4780517"
	},
	{
		"name": "Spielplatz \"Engelsdorfer Park - Ballplatz\"",
		"district": "Engelsdorf,Ost",
		"location": "Arthur-Winkler-Straße",
		"town": "Leipzig",
		"gaming_devices": [
			{
				"id": 61,
				"title": "Streetballkorb"
			}
		],
		"equipment": [
			{
				"id": 6,
				"title": "öffentliche Parkplätze vorhanden"
			}
		],
		"lines": "72, 172",
		"stops": "Haltestelle Arthur-Winkler-Straße",
		"latitude": "51.336494",
		"longitude": "12.4780517"
	},
	{
		"name": "Spielplatz \"Engelsdorfer Park - Tischtennisplatz\"",
		"district": "Engelsdorf,Ost",
		"location": "Arthur-Winkler-Straße",
		"town": "Leipzig",
		"gaming_devices": [
			{
				"id": 60,
				"title": "Tischtennisplatten"
			}
		],
		"equipment": [
			{
				"id": 6,
				"title": "öffentliche Parkplätze vorhanden"
			}
		],
		"lines": "72, 172",
		"stops": "Haltestelle Arthur-Winkler-Straße",
		"latitude": "51.336494",
		"longitude": "12.4780517"
	},
	{
		"name": "Spielplatz \"Enzianweg\"",
		"district": "Wiederitzsch,Nord",
		"location": "Enzianweg",
		"town": "Leipzig",
		"gaming_devices": [
			{
				"id": 1,
				"title": "Rutsche"
			},
			{
				"id": 120,
				"title": "Kletterholzstämme"
			}
		],
		"equipment": [
			{
				"id": 6,
				"title": "öffentliche Parkplätze vorhanden"
			}
		],
		"lines": "4, 87",
		"stops": "Haltestelle Landsberger Straße, Haltestelle Melissenweg",
		"latitude": "51.2702806",
		"longitude": "12.359067"
	},
	{
		"name": "Spielplatz \"Erikenstraße\"",
		"district": "Südwest,Hartmannsdorf-Knautnaundorf",
		"location": "Erikenstraße",
		"town": "Leipzig",
		"gaming_devices": [
			{
				"id": 118,
				"title": "Stehkarussell"
			}
		],
		"equipment": [
			{
				"id": 22,
				"title": "öffentliche Parkplätze sind vorhanden"
			}
		],
		"lines": "63",
		"stops": "Haltestelle Erikenstraße",
		"latitude": "51.2616226",
		"longitude": "12.3063731"
	},
	{
		"name": "Spielplatz \"Floßplatz\"",
		"district": "Zentrum-Süd,Mitte",
		"location": "Floßplatz",
		"town": "Leipzig",
		"gaming_devices": [
			{
				"id": 13,
				"title": "Tischtennisplatte"
			}
		],
		"equipment": [
			{
				"id": 6,
				"title": "öffentliche Parkplätze vorhanden"
			}
		],
		"lines": "10, 11",
		"stops": "Haltestelle Hohe Straße",
		"latitude": "51.3300698",
		"longitude": "12.3713016"
	},
	{
		"name": "Spielplatz \"Forstplatz im Stötteritzer Wäldchen\"",
		"district": "Stötteritz,Südost",
		"location": "westlich der Oststraße / im Forst",
		"town": "Leipzig",
		"gaming_devices": [
			{
				"id": 1,
				"title": "Rutsche"
			},
			{
				"id": 123,
				"title": "Balanciersteg"
			}
		],
		"equipment": [
			{
				"id": 6,
				"title": "öffentliche Parkplätze vorhanden"
			}
		],
		"lines": "4, 79",
		"stops": "Haltestelle Breslauer Straße, Haltestelle Oberdorfstraße",
		"latitude": "51.3396955",
		"longitude": "12.3730747"
	},
	{
		"name": "Spielplatz \"Freiligrathplatz\"",
		"district": "Gohlis-Mitte,Nord",
		"location": "Dietzgenstraße / Benedixstraße",
		"town": "Leipzig",
		"gaming_devices": [
			{
				"id": 13,
				"title": "Tischtennisplatte"
			}
		],
		"equipment": [
			{
				"id": 6,
				"title": "öffentliche Parkplätze vorhanden"
			}
		],
		"lines": "12, S1, S3",
		"stops": "Haltestelle S-Bahnhof Gohlis, Haltestelle Gohlis",
		"latitude": "51.3645265",
		"longitude": "12.3738766"
	},
	{
		"name": "Spielplatz \"Freundschaftspark\"",
		"district": "Probstheida,Südost",
		"location": "Prager Straße / Augustinerstraße",
		"town": "Leipzig",
		"gaming_devices": [
			{
				"id": 1,
				"title": "Rutsche"
			},
			{
				"id": 124,
				"title": "Pendelmast"
			}
		],
		"equipment": [
			{
				"id": 6,
				"title": "öffentliche Parkplätze vorhanden"
			}
		],
		"lines": "15, 79",
		"stops": "Haltestelle Prager Straße/Russenstraße, Haltestelle Prager Straße/Russenstraße",
		"latitude": "51.3083876",
		"longitude": "12.4272528"
	},
	{
		"name": "Spielplatz \"Freundschaftspark- Rodelhügel'",
		"district": "Probstheida,Südost",
		"location": "Prager Straße / Augustinerstraße",
		"town": "Leipzig",
		"gaming_devices": [
			{
				"id": 124,
				"title": "Pendelmast"
			}
		],
		"equipment": [
			{
				"id": 6,
				"title": "öffentliche Parkplätze vorhanden"
			}
		],
		"lines": "15, 79",
		"stops": "Haltestelle Prager Straße/Russenstraße, Haltestelle Prager Straße/Russenstraße",
		"latitude": "51.3083876",
		"longitude": "12.4272528"
	},
	{
		"name": "Spielplatz \"Friedrichshafner Straße\"",
		"district": "Mockau-Nord,Nordost",
		"location": "Friedrichshafner Straße",
		"town": "Leipzig",
		"gaming_devices": [
			{
				"id": 1,
				"title": "Rutsche"
			},
			{
				"id": 127,
				"title": "Pendelschwinger"
			}
		],
		"equipment": [
			{
				"id": 6,
				"title": "öffentliche Parkplätze vorhanden"
			}
		],
		"lines": "70, 80",
		"stops": "Haltestelle Schildberger Weg, Haltestelle Rosenowstraße",
		"latitude": "51.375784",
		"longitude": "12.4057054"
	},
	{
		"name": "Spielplatz \"Friesenstraße\"",
		"district": "Leutzsch,Alt-West",
		"location": "Friesenstraße / nahe Sportplatz am Waldrand",
		"town": "Leipzig",
		"gaming_devices": [
			{
				"id": 1,
				"title": "Rutsche"
			},
			{
				"id": 129,
				"title": "Klettersäule"
			}
		],
		"equipment": [
			{
				"id": 1,
				"title": "Bänke"
			},
			{
				"id": 30,
				"title": "Die öffentlichen Parkplätze befinden sich außerhalb des Forstgebietes."
			}
		],
		"lines": "7",
		"stops": "Haltestelle Wielandstraße",
		"latitude": "51.3396955",
		"longitude": "12.3730747"
	},
	{
		"name": "Spielplatz \"Fußballfeld im Friedenspark\"",
		"district": "Zentrum-Südost,Mitte",
		"location": "Linnéstraße / Phillip-Rosenthal-Straße",
		"town": "Leipzig",
		"gaming_devices": [
			{
				"id": 83,
				"title": "Torwand"
			}
		],
		"equipment": [
			{
				"id": 6,
				"title": "öffentliche Parkplätze vorhanden"
			}
		],
		"lines": "15, 2, 16, 60, 74",
		"stops": "Haltestelle Ostplatz, Haltestelle Deutsche Nationalbibliothek",
		"latitude": "51.3251476",
		"longitude": "12.392638"
	},
	{
		"name": "Spielplatz \"Gartengrund'",
		"district": "Böhlitz-Ehrenberg,Alt-West",
		"location": "Gartengrund / Luppenaue",
		"town": "Leipzig",
		"gaming_devices": [
			{
				"id": 77,
				"title": "Drehscheibe"
			}
		],
		"equipment": [
			{
				"id": 6,
				"title": "öffentliche Parkplätze vorhanden"
			}
		],
		"lines": "7, 62",
		"stops": "Haltestelle Ludwig-Jahn-Straße, Haltestelle Breitestraße",
		"latitude": "51.3548629",
		"longitude": "12.2827514"
	},
	{
		"name": "Spielplatz \"Gellertplatz\"",
		"district": "Altlindenau,Alt-West",
		"location": "Wielandstraße",
		"town": "Leipzig",
		"gaming_devices": [
			{
				"id": 41,
				"title": "Kletterwand"
			}
		],
		"equipment": [
			{
				"id": 6,
				"title": "öffentliche Parkplätze vorhanden"
			}
		],
		"lines": "7",
		"stops": "Haltestelle Wielandstraße",
		"latitude": "51.34045",
		"longitude": "12.3222351"
	},
	{
		"name": "Spielplatz \"Georg-Herwegh-Straße\"",
		"district": "Wiederitzsch,Nord",
		"location": "Georg-Herwegh-Straße",
		"town": "Leipzig",
		"gaming_devices": [
			{
				"id": 80,
				"title": "Kletterpyramide"
			}
		],
		"equipment": [
			{
				"id": 1,
				"title": "Bänke"
			},
			{
				"id": 32,
				"title": "öffentliche P+R Parkplätze an der Georg-Herwegh-Straße vorhanden"
			}
		],
		"lines": "16",
		"stops": "Haltestelle Georg-Herwegh-Straße",
		"latitude": "51.3978664",
		"longitude": "12.3829931"
	},
	{
		"name": "Spielplatz \"Georgplatz\"",
		"district": "Altlindenau,Alt-West",
		"location": "Spittastraße",
		"town": "Leipzig",
		"gaming_devices": [
			{
				"id": 1,
				"title": "Rutsche"
			},
			{
				"id": 130,
				"title": "Kletter- und Rutschpodest"
			}
		],
		"equipment": [
			{
				"id": 6,
				"title": "öffentliche Parkplätze vorhanden"
			}
		],
		"lines": "7",
		"stops": "Haltestelle Wielandstraße",
		"latitude": "51.3399705",
		"longitude": "12.3243248"
	},
	{
		"name": "Spielplatz \"Gersterstraße\"",
		"district": "Dölitz-Dösen,Süd",
		"location": "Gersterstraße",
		"town": "Leipzig",
		"gaming_devices": [
			{
				"id": 13,
				"title": "Tischtennisplatte"
			}
		],
		"equipment": [
			{
				"id": 6,
				"title": "öffentliche Parkplätze vorhanden"
			}
		],
		"lines": "11",
		"stops": "Friederikenstraße",
		"latitude": "51.2939568",
		"longitude": "12.3888422"
	},
	{
		"name": "Spielplatz \"Gießerplatz\"",
		"district": "Plagwitz,Südwest",
		"location": "Gießerstraße / Antonienstraße",
		"town": "Leipzig",
		"gaming_devices": [
			{
				"id": 9,
				"title": "Reck"
			}
		],
		"equipment": [
			{
				"id": 6,
				"title": "öffentliche Parkplätze vorhanden"
			}
		],
		"lines": "1, 2, 60",
		"stops": "Haltestelle Antonienstraße, Haltestelle Antonienstraße",
		"latitude": "51.3203342",
		"longitude": "12.323889"
	},
	{
		"name": "Spielplatz \"Goetheplatz\"",
		"district": "Böhlitz-Ehrenberg,Alt-West",
		"location": "Goetheplatz / Obere Mühlenstraße",
		"town": "Leipzig",
		"gaming_devices": [
			{
				"id": 4,
				"title": "Wippe"
			}
		],
		"equipment": [
			{
				"id": 6,
				"title": "öffentliche Parkplätze vorhanden"
			}
		],
		"lines": "62",
		"stops": "Haltestelle Goetheplatz",
		"latitude": "51.3396955",
		"longitude": "12.3730747"
	},
	{
		"name": "Spielplatz \"Goldene Hufe - Kletterplatz\"",
		"district": "Heiterblick,Ost",
		"location": "Goldene Hufe",
		"town": "Leipzig",
		"gaming_devices": [
			{
				"id": 24,
				"title": "Wipptier"
			}
		],
		"equipment": [
			{
				"id": 6,
				"title": "öffentliche Parkplätze vorhanden"
			}
		],
		"lines": "3, 7, 8",
		"stops": "Haltestelle Paunsdorf-Nord",
		"latitude": "51.3598675",
		"longitude": "12.4756406"
	},
	{
		"name": "Spielplatz \"Goldene Hufe - Seilplatz\"",
		"district": "Heiterblick,Ost",
		"location": "Goldene Hufe",
		"town": "Leipzig",
		"gaming_devices": [
			{
				"id": 1,
				"title": "Rutsche"
			},
			{
				"id": 135,
				"title": "Seilzugkombination aus Holz"
			}
		],
		"equipment": [
			{
				"id": 6,
				"title": "öffentliche Parkplätze vorhanden"
			}
		],
		"lines": "3, 7, 8",
		"stops": "Haltestelle Paunsdorf-Nord",
		"latitude": "51.3598675",
		"longitude": "12.4756406"
	},
	{
		"name": "Spielplatz \"Grassistraße\"",
		"district": "Zentrum-Süd,Mitte",
		"location": "Grassistraße",
		"town": "Leipzig",
		"gaming_devices": [
			{
				"id": 104,
				"title": " "
			}
		],
		"equipment": [
			{
				"id": 6,
				"title": "öffentliche Parkplätze vorhanden"
			}
		],
		"lines": "89",
		"stops": "Haltestelle Mozartstraße",
		"latitude": "51.3314038",
		"longitude": "12.3676628"
	},
	{
		"name": "Spielplatz \"Gregoryplatz\"",
		"district": "Stötteritz,Südost",
		"location": "Naunhofer Straße / Gletschersteinstraße",
		"town": "Leipzig",
		"gaming_devices": [
			{
				"id": 1,
				"title": "Rutsche"
			},
			{
				"id": 137,
				"title": "Findlinge"
			}
		],
		"equipment": [
			{
				"id": 6,
				"title": "öffentliche Parkplätze vorhanden"
			}
		],
		"lines": "2, 15",
		"stops": "Haltestelle Völkerschlachtdenkmal",
		"latitude": "51.3146016",
		"longitude": "12.4206284"
	},
	{
		"name": "Spielplatz \"Großmannplatz\"",
		"district": "Altlindenau,Alt-West",
		"location": "Großmannstraße",
		"town": "Leipzig",
		"gaming_devices": [
			{
				"id": 137,
				"title": "Findlinge"
			}
		],
		"equipment": [
			{
				"id": 6,
				"title": "öffentliche Parkplätze vorhanden"
			}
		],
		"lines": "7",
		"stops": "Haltestelle Wielandstraße",
		"latitude": "51.3411699",
		"longitude": "12.3218227"
	},
	{
		"name": "Spielplatz \"Grünauer Allee\"",
		"district": "Grünau-Ost,West",
		"location": "Grünauer Allee ",
		"town": "Leipzig",
		"gaming_devices": [
			{
				"id": 1,
				"title": "Rutsche"
			},
			{
				"id": 139,
				"title": "Drehbagger"
			}
		],
		"equipment": [
			{
				"id": 6,
				"title": "öffentliche Parkplätze vorhanden"
			}
		],
		"lines": "8, 15",
		"stops": "Haltestelle Grünauer Allee",
		"latitude": "51.3259121",
		"longitude": "12.302236"
	},
	{
		"name": "Spielplatz \"Grüner Bogen - Heiterer Blick'",
		"district": "Paunsdorf,Ost",
		"location": "Höhe Hainbuchenstraße",
		"town": "Leipzig",
		"gaming_devices": [
			{
				"id": 10,
				"title": "Kletternetz"
			}
		],
		"equipment": [
			{
				"id": 6,
				"title": "öffentliche Parkplätze vorhanden"
			}
		],
		"lines": "7, 8",
		"stops": "Haltestelle Ahornstraße",
		"latitude": "51.3569328",
		"longitude": "12.4567424"
	},
	{
		"name": "Spielplatz \"Grüner Bogen – Jugendtreff\"",
		"district": "Paunsdorf,Ost",
		"location": "Höhe Hainbuchenstraße",
		"town": "Leipzig",
		"gaming_devices": [
			{
				"id": 61,
				"title": "Streetballkorb"
			}
		],
		"equipment": [
			{
				"id": 6,
				"title": "öffentliche Parkplätze vorhanden"
			}
		],
		"lines": "7, 8",
		"stops": "Haltestelle Ahornstraße",
		"latitude": "51.3569328",
		"longitude": "12.4567424"
	},
	{
		"name": "Spielplatz \"Gustav-Schmoller-Straße\"",
		"district": "Wahren,Nordwest",
		"location": "Gustav-Schmoller-Straße",
		"town": "Leipzig",
		"gaming_devices": [
			{
				"id": 13,
				"title": "Tischtennisplatte"
			}
		],
		"equipment": [
			{
				"id": 6,
				"title": "öffentliche Parkplätze vorhanden"
			}
		],
		"lines": "87, 88",
		"stops": "Haltestelle Zeisigweg",
		"latitude": "51.3809886",
		"longitude": "12.3354946"
	},
	{
		"name": "Spielplatz \"Gustav-Schwabe-Platz\"",
		"district": "Stötteritz,Südost",
		"location": "Ludolf-Colditz-Straße / Naunhofer Straße",
		"town": "Leipzig",
		"gaming_devices": [
			{
				"id": 13,
				"title": "Tischtennisplatte"
			}
		],
		"equipment": [
			{
				"id": 6,
				"title": "öffentliche Parkplätze vorhanden"
			}
		],
		"lines": "2, 15",
		"stops": "Haltestelle Völkerschlachtdenkmal",
		"latitude": "51.315269",
		"longitude": "12.4197746"
	},
	{
		"name": "Spielplatz \"Gutspark Großzschocher\"",
		"district": "Großzschocher,Südwest",
		"location": "Buttergasse",
		"town": "Leipzig",
		"gaming_devices": [
			{
				"id": 13,
				"title": "Tischtennisplatte"
			}
		],
		"equipment": [
			{
				"id": 6,
				"title": "öffentliche Parkplätze vorhanden"
			}
		],
		"lines": "3",
		"stops": "Haltestelle Kunzestraße",
		"latitude": "51.3015205",
		"longitude": "12.3299312"
	},
	{
		"name": "Spielplatz \"Gutsweg\"",
		"district": "Seehausen,Nord",
		"location": "Gutsweg ",
		"town": "Leipzig",
		"gaming_devices": [
			{
				"id": 1,
				"title": "Rutsche"
			},
			{
				"id": 142,
				"title": "Röhre"
			}
		],
		"equipment": [
			{
				"id": 6,
				"title": "öffentliche Parkplätze vorhanden"
			}
		],
		"lines": "86",
		"stops": "Haltestelle Göbschelwitz",
		"latitude": "51.4217214",
		"longitude": "12.4235193"
	},
	{
		"name": "Spielplatz \"Hanns-Eisler-Straße\"",
		"district": "Anger-Crottendorf,Ost",
		"location": "Hanns-Eisler-Straße / Schacherstraße ",
		"town": "Leipzig",
		"gaming_devices": [
			{
				"id": 60,
				"title": "Tischtennisplatten"
			}
		],
		"equipment": [
			{
				"id": 6,
				"title": "öffentliche Parkplätze vorhanden"
			}
		],
		"lines": "7",
		"stops": "Haltestelle Wiebelstraße",
		"latitude": "51.339509",
		"longitude": "12.4148121"
	},
	{
		"name": "Spielplatz \"Heidelberger Straße\"",
		"district": "Grünau-Mitte,West",
		"location": "Heidelberger Straße ",
		"town": "Leipzig",
		"gaming_devices": [
			{
				"id": 60,
				"title": "Tischtennisplatten"
			}
		],
		"equipment": [
			{
				"id": 6,
				"title": "öffentliche Parkplätze vorhanden"
			}
		],
		"lines": "8, 15, 61, 65, 66, 80E, 161",
		"stops": "Haltestelle Schönauer Ring, Haltestelle Schönauer Ring",
		"latitude": "51.3210416",
		"longitude": "12.2867301"
	},
	{
		"name": "Spielplatz \"Heimteichstraße\"",
		"district": "Leutzsch,Alt-West",
		"location": "Heimteichstraße / Gaußstraße",
		"town": "Leipzig",
		"gaming_devices": [
			{
				"id": 84,
				"title": "Flüsterkugel"
			}
		],
		"equipment": [
			{
				"id": 6,
				"title": "öffentliche Parkplätze vorhanden"
			}
		],
		"lines": "7",
		"stops": "Haltestelle Philipp-Reis-Straße",
		"latitude": "51.3532988",
		"longitude": "12.3090402"
	},
	{
		"name": "Spielplatz \"Heinrich-Budde-Platz\"",
		"district": "Gohlis-Mitte,Nord",
		"location": "Heinrich-Budde-Straße",
		"town": "Leipzig",
		"gaming_devices": [
			{
				"id": 35,
				"title": "Hängematte"
			}
		],
		"equipment": [
			{
				"id": 6,
				"title": "öffentliche Parkplätze vorhanden"
			}
		],
		"lines": "4, 12, 90",
		"stops": "Haltestelle Coppiplatz, Haltestelle Virchow-/Coppistraße, Haltestelle Coppiplatz",
		"latitude": "51.369546",
		"longitude": "12.3710897"
	},
	{
		"name": "Spielplatz \"Heinrich-Schütz-Platz\"",
		"district": "Südvorstadt,Süd",
		"location": "Hardenbergstraße/Karl-Liebknecht-Straße",
		"town": "Leipzig",
		"gaming_devices": [
			{
				"id": 1,
				"title": "Rutsche"
			},
			{
				"id": 148,
				"title": "Streetballfeld"
			}
		],
		"equipment": [
			{
				"id": 6,
				"title": "öffentliche Parkplätze vorhanden"
			}
		],
		"lines": "10, 11, 60, 74",
		"stops": "Haltestelle Karl-Liebknecht-Straße/Kurt-Eisner-Straße",
		"latitude": "51.3207657",
		"longitude": "12.3736014"
	},
	{
		"name": "Spielplatz \"Henricistraße\"",
		"district": "Altlindenau,Alt-West",
		"location": "Henricistraße",
		"town": "Leipzig",
		"gaming_devices": [
			{
				"id": 8,
				"title": "Schaukel"
			}
		],
		"equipment": [
			{
				"id": 6,
				"title": "öffentliche Parkplätze vorhanden"
			}
		],
		"lines": "7, 8, 15, 74, 130, 131",
		"stops": "Haltestelle Lindenauer Markt, Haltestelle Lindenauer Markt",
		"latitude": "51.3391419",
		"longitude": "12.3361348"
	},
	{
		"name": "Spielplatz \"Henriettenpark\"",
		"district": "Lindenau,Alt-West",
		"location": "Henriettenstraße / Endersstraße",
		"town": "Leipzig",
		"gaming_devices": [
			{
				"id": 1,
				"title": "Rutsche"
			},
			{
				"id": 149,
				"title": "Skateranlage"
			}
		],
		"equipment": [
			{
				"id": 6,
				"title": "öffentliche Parkplätze vorhanden"
			}
		],
		"lines": "8, 15",
		"stops": "Haltestelle Henriettenstraße",
		"latitude": "51.3335525",
		"longitude": "12.3282186"
	},
	{
		"name": "Spielplatz \"Herderplatz\"",
		"district": "Connewitz,Süd",
		"location": "Herderstraße / Wolfgang-Heinze-Straße",
		"town": "Leipzig",
		"gaming_devices": [
			{
				"id": 1,
				"title": "Rutsche"
			},
			{
				"id": 153,
				"title": "Minirutschen"
			}
		],
		"equipment": [
			{
				"id": 6,
				"title": "öffentliche Parkplätze vorhanden"
			}
		],
		"lines": "9, 107",
		"stops": "Haltestelle Mathildenstraße, Haltestelle Mathildenstraße",
		"latitude": "51.3065474",
		"longitude": "12.373636"
	},
	{
		"name": "Spielplatz \"Herrenallee\"",
		"district": "Zentrum-Nordwest,Mitte",
		"location": "Herrenallee im Rosental",
		"town": "Leipzig",
		"gaming_devices": [
			{
				"id": 107,
				"title": "Naturelemente"
			}
		],
		"equipment": [
			{
				"id": 1,
				"title": "Bänke"
			},
			{
				"id": 37,
				"title": "Die öffentlichen Parkplätze befinden sich im nahegelegenen Wohnviertel."
			}
		],
		"lines": "12",
		"stops": "Haltestelle Fritz-Seger-Straße",
		"latitude": "51.35",
		"longitude": "12.3666667"
	},
	{
		"name": "Spielplatz \"Hildebrandplatz\"",
		"district": "Connewitz,Süd",
		"location": "Hildbrandstraße / Bornaische Straße",
		"town": "Leipzig",
		"gaming_devices": [
			{
				"id": 1,
				"title": "Rutsche"
			},
			{
				"id": 158,
				"title": "Bolzplatz"
			}
		],
		"equipment": [
			{
				"id": 6,
				"title": "öffentliche Parkplätze vorhanden"
			}
		],
		"lines": "11",
		"stops": "Haltestelle Hildbrandstraße",
		"latitude": "51.2955397",
		"longitude": "12.3861156"
	},
	{
		"name": "Spielplatz \"Hirtenweg\"",
		"district": "Marienbrunn,Süd",
		"location": "Hirtenweg",
		"town": "Leipzig",
		"gaming_devices": [
			{
				"id": 1,
				"title": "Rutsche"
			},
			{
				"id": 159,
				"title": "Brettspieltische"
			}
		],
		"equipment": [
			{
				"id": 6,
				"title": "öffentliche Parkplätze vorhanden"
			}
		],
		"lines": "10, 16",
		"stops": "Haltestelle Triftweg",
		"latitude": "51.3077707",
		"longitude": "12.3939787"
	},
	{
		"name": "Spielplatz \"Hohmannplatz\"",
		"district": "Eutritzsch,Nord",
		"location": "Hohmannstraße / Theresienstraße",
		"town": "Leipzig",
		"gaming_devices": [
			{
				"id": 10,
				"title": "Kletternetz"
			}
		],
		"equipment": [
			{
				"id": 6,
				"title": "öffentliche Parkplätze vorhanden"
			}
		],
		"lines": "16, 90",
		"stops": "Haltestelle Wilhelminenstraße, Haltestelle Theresienstraße",
		"latitude": "51.3616211",
		"longitude": "12.3898146"
	},
	{
		"name": "Spielplatz \"Hotherplatz – Erlasiedlung\"",
		"district": "Thekla,Nordost",
		"location": "Hotherstraße / Donarstraße",
		"town": "Leipzig",
		"gaming_devices": [
			{
				"id": 45,
				"title": "Reifenschaukel"
			}
		],
		"equipment": [
			{
				"id": 6,
				"title": "öffentliche Parkplätze vorhanden"
			}
		],
		"lines": "81, 82",
		"stops": "Haltestelle Wodanstraße",
		"latitude": "51.3805757",
		"longitude": "12.4480942"
	},
	{
		"name": "Spielplatz \"Huttenplatz\"",
		"district": "Großzschocher,Südwest",
		"location": "Huttenstraße / Pfeilstaße",
		"town": "Leipzig",
		"gaming_devices": [
			{
				"id": 1,
				"title": "Rutsche"
			},
			{
				"id": 161,
				"title": "Drehkegel"
			}
		],
		"equipment": [
			{
				"id": 6,
				"title": "öffentliche Parkplätze vorhanden"
			}
		],
		"lines": "3",
		"stops": "Haltestelle Gerhard-Ellrodt-Straße",
		"latitude": "51.3396955",
		"longitude": "12.3730747"
	},
	{
		"name": "Spielplatz \"Johannapark\"",
		"district": "Zentrum-West,Mitte",
		"location": "Ferdinand-Lassalle-Straße",
		"town": "Leipzig",
		"gaming_devices": [
			{
				"id": 123,
				"title": "Balanciersteg"
			}
		],
		"equipment": [
			{
				"id": 6,
				"title": "öffentliche Parkplätze vorhanden"
			}
		],
		"lines": "1, 2, 14",
		"stops": "Haltestelle Marschnerstraße",
		"latitude": "51.3338094",
		"longitude": "12.3580792"
	},
	{
		"name": "Spielplatz \"Johannes-Weyrauch-Platz\"",
		"district": "Böhlitz-Ehrenberg,Alt-West",
		"location": "Pestalozzistraße / Leipziger Straße",
		"town": "Leipzig",
		"gaming_devices": [
			{
				"id": 3,
				"title": "Klettergerüst"
			}
		],
		"equipment": [
			{
				"id": 6,
				"title": "öffentliche Parkplätze vorhanden"
			}
		],
		"lines": "4, 62",
		"stops": "Haltestelle Barneckerstraße, Haltestelle Südstraße",
		"latitude": "51.3700369",
		"longitude": "12.4686254"
	},
	{
		"name": "Spielplatz \"Jugendclub – Rückseite\"",
		"district": "Sellerhausen-Stünz,Ost",
		"location": "Püchauer Straße",
		"town": "Leipzig",
		"gaming_devices": [
			{
				"id": 8,
				"title": "Schaukel"
			}
		],
		"equipment": [
			{
				"id": 6,
				"title": "öffentliche Parkplätze vorhanden"
			}
		],
		"lines": "77",
		"stops": "Haltestelle Püchauer Straße",
		"latitude": "51.3448713",
		"longitude": "12.42705"
	},
	{
		"name": "Spielplatz \"Jugendclub – Vorderseite\"",
		"district": "Sellerhausen-Stünz,Ost",
		"location": "Püchauer Straße ",
		"town": "Leipzig",
		"gaming_devices": [
			{
				"id": 69,
				"title": "Streetballplatz"
			}
		],
		"equipment": [
			{
				"id": 6,
				"title": "öffentliche Parkplätze vorhanden"
			}
		],
		"lines": "77",
		"stops": "Haltestelle Püchauer Straße",
		"latitude": "51.3448713",
		"longitude": "12.42705"
	},
	{
		"name": "Spielplatz \"Jugendkuhle\"",
		"district": "Schönau,West",
		"location": "Stuttgarter Allee / Dölziger Weg",
		"town": "Leipzig",
		"gaming_devices": [
			{
				"id": 61,
				"title": "Streetballkorb"
			}
		],
		"equipment": [
			{
				"id": 6,
				"title": "öffentliche Parkplätze vorhanden"
			}
		],
		"lines": "8, 15, 61, 65, 66, 80E, 161",
		"stops": "Haltestelle Schönauer Ring, HaltestelleSchönauer Ring",
		"latitude": "51.3261902",
		"longitude": "12.2845198"
	},
	{
		"name": "Spielplatz \"Kanonenteich\"",
		"district": "Zentrum-Südost,Mitte",
		"location": "Talstraße / Liebigstraße",
		"town": "Leipzig",
		"gaming_devices": [
			{
				"id": 3,
				"title": "Klettergerüst"
			}
		],
		"equipment": [
			{
				"id": 6,
				"title": "öffentliche Parkplätze vorhanden"
			}
		],
		"lines": "2, 9, 16",
		"stops": "Haltestelle Bayrischer Platz",
		"latitude": "51.330956",
		"longitude": "12.3910025"
	},
	{
		"name": "Spielplatz \"Karl-Heine-Platz\"",
		"district": "Lindenau,Alt-West",
		"location": "Aurelienstraße / Siemeringstraße",
		"town": "Leipzig",
		"gaming_devices": [
			{
				"id": 1,
				"title": "Rutsche"
			},
			{
				"id": 168,
				"title": "Stufenreck"
			}
		],
		"equipment": [
			{
				"id": 6,
				"title": "öffentliche Parkplätze vorhanden"
			}
		],
		"lines": "3, 14, 74",
		"stops": "Haltestelle Felsenkeller, Haltestelle Felsenkeller",
		"latitude": "51.3344857",
		"longitude": "12.3354265"
	},
	{
		"name": "Spielplatz \"Kirchplatz Möckern\"",
		"district": "Möckern,Nordwest",
		"location": "Georg-Schuhmann-Straße / Dantestraße",
		"town": "Leipzig",
		"gaming_devices": [
			{
				"id": 13,
				"title": "Tischtennisplatte"
			}
		],
		"equipment": [
			{
				"id": 6,
				"title": "öffentliche Parkplätze vorhanden"
			}
		],
		"lines": "10, 11",
		"stops": "Haltestelle Dantestraße",
		"latitude": "51.3683628",
		"longitude": "12.346112"
	},
	{
		"name": "Spielplatz \"Klasingstraße\"",
		"district": "Neustadt-Neuschönefeld,Ost",
		"location": "Klasingstraße/Reclamstraße",
		"town": "Leipzig",
		"gaming_devices": [
			{
				"id": 1,
				"title": "Rutsche"
			},
			{
				"id": 170,
				"title": "Kletterbahn"
			}
		],
		"equipment": [
			{
				"id": 6,
				"title": "öffentliche Parkplätze vorhanden"
			}
		],
		"lines": "4, 7",
		"stops": "Haltestelle Gerichtsweg",
		"latitude": "51.3418614",
		"longitude": "12.4001048"
	},
	{
		"name": "Spielplatz \"Kleine Promenade\"",
		"district": "Engelsdorf,Ost",
		"location": "Kleine Promenade / Bernsteinstraße",
		"town": "Leipzig",
		"gaming_devices": [
			{
				"id": 1,
				"title": "Rutsche"
			},
			{
				"id": 172,
				"title": "Kletterstrecke"
			}
		],
		"equipment": [
			{
				"id": 6,
				"title": "öffentliche Parkplätze vorhanden"
			}
		],
		"lines": "172",
		"stops": "Haltestelle Opalstraße",
		"latitude": "51.3368121",
		"longitude": "12.4824548"
	},
	{
		"name": "Spielplatz \"Kletterplatz im Friedenspark\"",
		"district": "Zentrum-Südost,Mitte",
		"location": "Linnéstraße / Phillip-Rosenthal-Straße",
		"town": "Leipzig",
		"gaming_devices": [
			{
				"id": 4,
				"title": "Wippe"
			}
		],
		"equipment": [
			{
				"id": 6,
				"title": "öffentliche Parkplätze vorhanden"
			}
		],
		"lines": "15, 2, 16, 60, 74",
		"stops": "Haltestelle Ostplatz, Haltestelle Deutsche Nationalbibliothek",
		"latitude": "51.3251476",
		"longitude": "12.392638"
	},
	{
		"name": "Spielplatz \"Knautnaundorfer Anger\"",
		"district": "Südwest,Hartmannsdorf-Knautnaundorf",
		"location": "Knautnaundorfer Anger",
		"town": "Leipzig",
		"gaming_devices": [
			{
				"id": 1,
				"title": "Rutsche"
			},
			{
				"id": 173,
				"title": "Holztier"
			}
		],
		"equipment": [
			{
				"id": 22,
				"title": "öffentliche Parkplätze sind vorhanden"
			}
		],
		"lines": "120",
		"stops": "Haltestelle Werkstraße",
		"latitude": "51.2525577",
		"longitude": "12.2729386"
	},
	{
		"name": "Spielplatz \"Körnerplatz\"",
		"district": "Zentrum-Süd,Mitte",
		"location": "Körnerplatz",
		"town": "Leipzig",
		"gaming_devices": [
			{
				"id": 18,
				"title": "Kletterturm"
			}
		],
		"equipment": [
			{
				"id": 6,
				"title": "öffentliche Parkplätze vorhanden"
			}
		],
		"lines": "10, 11",
		"stops": "Haltestelle Südplatz",
		"latitude": "51.3258027",
		"longitude": "12.3750569"
	},
	{
		"name": "Spielplatz \"Krakauer Straße\"",
		"district": "West,Grünau-Siedlung",
		"location": "Krakauer Straße",
		"town": "Leipzig",
		"gaming_devices": [
			{
				"id": 1,
				"title": "Rutsche"
			},
			{
				"id": 175,
				"title": "Volleyball"
			}
		],
		"equipment": [
			{
				"id": 6,
				"title": "öffentliche Parkplätze vorhanden"
			}
		],
		"lines": "1, 61, 66, 80E, 161",
		"stops": "Haltestelle Krakauer Straße, Haltestelle Krakauer Straße",
		"latitude": "51.3113198",
		"longitude": "12.2708462"
	},
	{
		"name": "Spielplatz \"Krönerstraße“",
		"district": "Anger-Crottendorf,Ost",
		"location": "Krönerstraße",
		"town": "Leipzig",
		"gaming_devices": [
			{
				"id": 174,
				"title": "Fußballfeld"
			}
		],
		"equipment": [
			{
				"id": 6,
				"title": "öffentliche Parkplätze vorhanden"
			}
		],
		"lines": "7",
		"stops": "Haltestelle Wiebelstraße",
		"latitude": "51.3397809",
		"longitude": "12.4152221"
	},
	{
		"name": "Spielplatz \"Krostitzer Weg\"",
		"district": "Eutritzsch,Nord",
		"location": "Krostitzer Weg",
		"town": "Leipzig",
		"gaming_devices": [
			{
				"id": 13,
				"title": "Tischtennisplatte"
			}
		],
		"equipment": [
			{
				"id": 6,
				"title": "öffentliche Parkplätze vorhanden"
			}
		],
		"lines": "16",
		"stops": "Klinikum St. Georg",
		"latitude": "51.3850188",
		"longitude": "12.3842565"
	},
	{
		"name": "Spielplatz \"Labyrinth\"",
		"district": "Zentrum,Mitte",
		"location": "Reichsstraße",
		"town": "Leipzig",
		"gaming_devices": [
			{
				"id": 104,
				"title": " "
			}
		],
		"equipment": [
			{
				"id": 6,
				"title": "öffentliche Parkplätze vorhanden"
			}
		],
		"lines": "1, 7, 4, 12, 15, 3, 10, 16, 11, 14, 9, 89",
		"stops": "Haltestelle Hauptbahnhof, Haltestelle Reichsstraße",
		"latitude": "51.3414038",
		"longitude": "12.3766734"
	},
	{
		"name": "Spielplatz \"Landschaftspark Wiederitzsch - Kletterplatz\"",
		"district": "Wiederitzsch,Nord",
		"location": "Akazienweg",
		"town": "Leipzig",
		"gaming_devices": [
			{
				"id": 69,
				"title": "Streetballplatz"
			}
		],
		"equipment": [
			{
				"id": 6,
				"title": "öffentliche Parkplätze vorhanden"
			}
		],
		"lines": "16, 87",
		"stops": "Haltestelle Dachauer Straße, Haltestelle Dachauer Straße",
		"latitude": "51.3882349",
		"longitude": "12.3738243"
	},
	{
		"name": "Spielplatz \"Landschaftspark Wiederitzsch - Sandspielplatz\"",
		"district": "Wiederitzsch,Nord",
		"location": "Höhe Ebereschenweg",
		"town": "Leipzig",
		"gaming_devices": [
			{
				"id": 1,
				"title": "Rutsche"
			},
			{
				"id": 182,
				"title": "Sandspieltisch"
			}
		],
		"equipment": [
			{
				"id": 6,
				"title": "öffentliche Parkplätze vorhanden"
			}
		],
		"lines": "16, 87",
		"stops": "Haltestelle Dachauer Straße, Haltestelle Dachauer Straße",
		"latitude": "51.3879311",
		"longitude": "12.3728132"
	},
	{
		"name": "Spielplatz \"Lene-Voigt-Park - Rutschplatz\"",
		"district": "Reudnitz-Thonberg,Südost",
		"location": "Eilenburger Straße / Rubensstraße",
		"town": "Leipzig",
		"gaming_devices": [
			{
				"id": 25,
				"title": "Kletterseil"
			}
		],
		"equipment": [
			{
				"id": 6,
				"title": "öffentliche Parkplätze vorhanden"
			}
		],
		"lines": "15, 60",
		"stops": "Haltestelle Ostplatz, Haltestelle Ostplatz",
		"latitude": "51.3326297",
		"longitude": "12.4021056"
	},
	{
		"name": "Spielplatz \"Lene-Voigt-Park - Tischtennisplatz\"",
		"district": "Reudnitz-Thonberg,Südost",
		"location": "Eilenburger Straße / Reichpietschstraße",
		"town": "Leipzig",
		"gaming_devices": [
			{
				"id": 60,
				"title": "Tischtennisplatten"
			}
		],
		"equipment": [
			{
				"id": 6,
				"title": "öffentliche Parkplätze vorhanden"
			}
		],
		"lines": "15, 60",
		"stops": "Haltestelle Ostplatz, Haltestelle Ostplatz",
		"latitude": "51.3344973",
		"longitude": "12.4008506"
	},
	{
		"name": "Spielplatz \"Lene-Voigt-Park - Wasserspiel\"",
		"district": "Reudnitz-Thonberg,Südost",
		"location": "Eilenburger Straße / Rubensstraße",
		"town": "Leipzig",
		"gaming_devices": [
			{
				"id": 1,
				"title": "Rutsche"
			},
			{
				"id": 184,
				"title": "Holzstrecke mit Wasserlauf"
			}
		],
		"equipment": [
			{
				"id": 6,
				"title": "öffentliche Parkplätze vorhanden"
			}
		],
		"lines": "15, 60",
		"stops": "Haltestelle Ostplatz, Haltestelle Ostplatz",
		"latitude": "51.3326297",
		"longitude": "12.4021056"
	},
	{
		"name": "Spielplatz \"Lene-Voigt-Park – Ballplatz\"",
		"district": "Reudnitz-Thonberg,Südost",
		"location": "Eilenburger Straße / Johannisallee",
		"town": "Leipzig",
		"gaming_devices": [
			{
				"id": 1,
				"title": "Rutsche"
			},
			{
				"id": 186,
				"title": "Streetballkörbe"
			}
		],
		"equipment": [
			{
				"id": 6,
				"title": "öffentliche Parkplätze vorhanden"
			}
		],
		"lines": "15, 60",
		"stops": "Haltestelle Ostplatz, Haltestelle Ostplatz",
		"latitude": "51.3304558",
		"longitude": "12.3924853"
	},
	{
		"name": "Spielplatz \"Lene-Voigt-Park – Beachvolleyballplatz\"",
		"district": "Reudnitz-Thonberg,Südost",
		"location": "Eilenburger Straße / Albert-Schweitzer-Straße",
		"town": "Leipzig",
		"gaming_devices": [
			{
				"id": 41,
				"title": "Kletterwand"
			}
		],
		"equipment": [
			{
				"id": 6,
				"title": "öffentliche Parkplätze vorhanden"
			}
		],
		"lines": "15, 60",
		"stops": "Haltestelle Ostplatz, Haltestelle Ostplatz",
		"latitude": "51.3318532",
		"longitude": "12.4041257"
	},
	{
		"name": "Spielplatz \"Lene-Voigt-Park – Kletterplatz\"",
		"district": "Reudnitz-Thonberg,Südost",
		"location": "Eilenburger Straße / Rubensstraße",
		"town": "Leipzig",
		"gaming_devices": [
			{
				"id": 8,
				"title": "Schaukel"
			}
		],
		"equipment": [
			{
				"id": 6,
				"title": "öffentliche Parkplätze vorhanden"
			}
		],
		"lines": "15, 60",
		"stops": "Haltestelle Ostplatz, Haltestelle Ostplatz",
		"latitude": "51.3326297",
		"longitude": "12.4021056"
	},
	{
		"name": "Spielplatz \"Lene-Voigt-Park – Märchenplatz\"",
		"district": "Reudnitz-Thonberg,Südost",
		"location": "Eilenburger Straße / Josephinenstraße",
		"town": "Leipzig",
		"gaming_devices": [
			{
				"id": 23,
				"title": "Karussell"
			}
		],
		"equipment": [
			{
				"id": 6,
				"title": "öffentliche Parkplätze vorhanden"
			}
		],
		"lines": "15, 60",
		"stops": "Haltestelle Ostplatz, Haltestelle Ostplatz",
		"latitude": "51.3322535",
		"longitude": "12.3987409"
	},
	{
		"name": "Spielplatz \"Lessingplatz\"",
		"district": "Böhlitz-Ehrenberg,Alt-West",
		"location": "Heinrich-Heine-Straße / Südstraße",
		"town": "Leipzig",
		"gaming_devices": [
			{
				"id": 1,
				"title": "Rutsche"
			},
			{
				"id": 192,
				"title": "Kletterelement \"Spagettini\""
			}
		],
		"equipment": [
			{
				"id": 6,
				"title": "öffentliche Parkplätze vorhanden"
			}
		],
		"lines": "7, 62",
		"stops": "Haltestelle Südstraße, Haltestelle Südstraße",
		"latitude": "51.3546388",
		"longitude": "12.2922364"
	},
	{
		"name": "Spielplatz \"Lewienstraße\"",
		"district": "Lindenthal,Nordwest",
		"location": "Lewienstraße / Rosestraße",
		"town": "Leipzig",
		"gaming_devices": [
			{
				"id": 24,
				"title": "Wipptier"
			}
		],
		"equipment": [
			{
				"id": 6,
				"title": "öffentliche Parkplätze vorhanden"
			}
		],
		"lines": "90",
		"stops": "Haltestelle Rudolf-Breitschneider-Straße",
		"latitude": "51.3893675",
		"longitude": "12.3206204"
	},
	{
		"name": "Spielplatz \"Liselotte-Herrmann-Park\"",
		"district": "Anger-Crottendorf,Ost",
		"location": "Zweinaundorfer Straße / Theodor-Neubauer-Straße",
		"town": "Leipzig",
		"gaming_devices": [
			{
				"id": 13,
				"title": "Tischtennisplatte"
			}
		],
		"equipment": [
			{
				"id": 6,
				"title": "öffentliche Parkplätze vorhanden"
			}
		],
		"lines": "4, 72, 73",
		"stops": "Haltestelle Breite Straße, Haltestelle Martinstraße",
		"latitude": "51.3358892",
		"longitude": "12.4233854"
	},
	{
		"name": "Spielplatz \"Liselotte-Herrmann-Straße\"",
		"district": "Volkmarsdorf,Ost",
		"location": "Liselotte-Herrmann-Straße",
		"town": "Leipzig",
		"gaming_devices": [
			{
				"id": 13,
				"title": "Tischtennisplatte"
			}
		],
		"equipment": [
			{
				"id": 6,
				"title": "öffentliche Parkplätze vorhanden"
			}
		],
		"lines": "7",
		"stops": "Haltestelle Edlichstraße",
		"latitude": "51.3390792",
		"longitude": "12.4184084"
	},
	{
		"name": "Spielplatz \"Louise-Otto-Peters-Platz\"",
		"district": "Zentrum-Nordwest,Mitte",
		"location": "Zöllnerweg / Leibnitzweg",
		"town": "Leipzig",
		"gaming_devices": [
			{
				"id": 137,
				"title": "Findlinge"
			}
		],
		"equipment": [
			{
				"id": 6,
				"title": "öffentliche Parkplätze vorhanden"
			}
		],
		"lines": "12",
		"stops": "Haltestelle Am Zoo",
		"latitude": "51.3396955",
		"longitude": "12.3730747"
	},
	{
		"name": "Spielplatz \"Ludwig-Beck-Straße\"",
		"district": "Gohlis-Mitte,Nord",
		"location": "Ludwig-Beck-Straße",
		"town": "Leipzig",
		"gaming_devices": [
			{
				"id": 18,
				"title": "Kletterturm"
			}
		],
		"equipment": [
			{
				"id": 6,
				"title": "öffentliche Parkplätze vorhanden"
			}
		],
		"lines": "4, S10",
		"stops": "Haltestelle Coppiplatz, Haltestelle Coppiplatz",
		"latitude": "51.3677177",
		"longitude": "12.3629807"
	},
	{
		"name": "Spielplatz \"Malachitstraße\"",
		"district": "Engelsdorf,Ost",
		"location": "Malachitstraße",
		"town": "Leipzig",
		"gaming_devices": [
			{
				"id": 1,
				"title": "Rutsche"
			}
		],
		"equipment": [
			{
				"id": 6,
				"title": "öffentliche Parkplätze vorhanden"
			}
		],
		"lines": "172",
		"stops": "Haltestelle Opalstraße",
		"latitude": "51.3409766",
		"longitude": "12.4784085"
	},
	{
		"name": "Spielplatz \"Mariannenpark - Holzspielplatz\"",
		"district": "Schönefeld-Abtnaundorf,Nordost",
		"location": "Schönefelder Allee / Rohrteichstraße",
		"town": "Leipzig",
		"gaming_devices": [
			{
				"id": 35,
				"title": "Hängematte"
			}
		],
		"equipment": [
			{
				"id": 6,
				"title": "öffentliche Parkplätze vorhanden"
			}
		],
		"lines": "1, 90",
		"stops": "Haltestelle Stannebeinplatz, Haltestelle Mariannenpark",
		"latitude": "51.3516795",
		"longitude": "12.4025717"
	},
	{
		"name": "Spielplatz \"Mariannenpark - Jugendplatz\"",
		"district": "Schönefeld-Abtnaundorf,Nordost",
		"location": "Rohrteichstraße ",
		"town": "Leipzig",
		"gaming_devices": [
			{
				"id": 60,
				"title": "Tischtennisplatten"
			}
		],
		"equipment": [
			{
				"id": 6,
				"title": "öffentliche Parkplätze vorhanden"
			}
		],
		"lines": "1, 90",
		"stops": "Haltestelle Stannebeinplatz, Haltestelle Mariannenpark",
		"latitude": "51.3516795",
		"longitude": "12.4025717"
	},
	{
		"name": "Spielplatz \"Marienkirchplatz\"",
		"district": "Stötteritz,Südost",
		"location": "Sommerfelder Straße / Lochmannstraße ",
		"town": "Leipzig",
		"gaming_devices": [
			{
				"id": 42,
				"title": "Klettersteine"
			}
		],
		"equipment": [
			{
				"id": 6,
				"title": "öffentliche Parkplätze vorhanden"
			}
		],
		"lines": "4, 74, 79",
		"stops": "Haltestelle Kolmstraße, Haltestelle Kolmstraße",
		"latitude": "51.3215298",
		"longitude": "12.4236741"
	},
	{
		"name": "Spielplatz \"Marienweg\"",
		"district": "Zentrum-Nordwest,Mitte",
		"location": "Marienweg / Hinterer Rosentalteich im Rosental",
		"town": "Leipzig",
		"gaming_devices": [
			{
				"id": 107,
				"title": "Naturelemente"
			}
		],
		"equipment": [
			{
				"id": 1,
				"title": "Bänke"
			},
			{
				"id": 40,
				"title": "öffentliche Parkplätze sind um das Rosental vorhanden"
			}
		],
		"lines": "4",
		"stops": "Haltestelle Stallbaumstraße",
		"latitude": "51.35",
		"longitude": "12.3666667"
	},
	{
		"name": "Spielplatz \"Martinsplatz\"",
		"district": "Kleinzschocher,Südwest",
		"location": "Dieskaustraße",
		"town": "Leipzig",
		"gaming_devices": [
			{
				"id": 44,
				"title": "Balancierstrecke"
			}
		],
		"equipment": [
			{
				"id": 6,
				"title": "öffentliche Parkplätze vorhanden"
			}
		],
		"lines": "3",
		"stops": "Haltestelle Kötzschauer Straße",
		"latitude": "51.2940015",
		"longitude": "12.3209043"
	},
	{
		"name": "Spielplatz \"Max-Reger-Allee\"",
		"district": "Zentrum-Süd,Mitte",
		"location": "Max-Reger-Allee",
		"town": "Leipzig",
		"gaming_devices": [
			{
				"id": 104,
				"title": " "
			}
		],
		"equipment": [
			{
				"id": 6,
				"title": "öffentliche Parkplätze vorhanden"
			}
		],
		"lines": "89",
		"stops": "Haltestelle Telemannstraße",
		"latitude": "51.329275",
		"longitude": "12.3554422"
	},
	{
		"name": "Spielplatz \"Max-Reger-Straße\"",
		"district": "Engelsdorf,Ost",
		"location": "Max-Reger-Straße",
		"town": "Leipzig",
		"gaming_devices": [
			{
				"id": 104,
				"title": " "
			}
		],
		"equipment": [
			{
				"id": 6,
				"title": "öffentliche Parkplätze vorhanden"
			}
		],
		"lines": "172",
		"stops": "Haltestelle Opalstraße",
		"latitude": "51.3380316",
		"longitude": "12.4838449"
	},
	{
		"name": "Spielplatz \"Naturbad Nordost - Holzspielplatz\"",
		"district": "Thekla,Nordost",
		"location": "Kiebitzstraße / am Naturbad Nordost",
		"town": "Leipzig",
		"gaming_devices": [
			{
				"id": 9,
				"title": "Reck"
			}
		],
		"equipment": [
			{
				"id": 6,
				"title": "öffentliche Parkplätze vorhanden"
			}
		],
		"lines": "9, 70, 80",
		"stops": "Haltestelle Thekla, Haltestelle Thekla",
		"latitude": "51.3715597",
		"longitude": "12.4261777"
	},
	{
		"name": "Spielplatz \"Naturbad Nordost - Volleyballplatz\"",
		"district": "Thekla,Nordost",
		"location": "Theklaer Straße",
		"town": "Leipzig",
		"gaming_devices": [
			{
				"id": 176,
				"title": "Volleyballfeld"
			}
		],
		"equipment": [
			{
				"id": 6,
				"title": "öffentliche Parkplätze vorhanden"
			}
		],
		"lines": "70, 79",
		"stops": "Haltestelle Sosaer Straße, Haltestelle Lidicestraße",
		"latitude": "51.3694767",
		"longitude": "12.4254271"
	},
	{
		"name": "Spielplatz \"Naturbad Südwest\"",
		"district": "Großzschocher,Südwest",
		"location": "Dieskaustraße (Westseite vom Naturbad)",
		"town": "Leipzig",
		"gaming_devices": [
			{
				"id": 9,
				"title": "Reck"
			}
		],
		"equipment": [
			{
				"id": 6,
				"title": "öffentliche Parkplätze vorhanden"
			}
		],
		"lines": "3",
		"stops": "Haltestelle Wasserwerk Windorf",
		"latitude": "51.3396955",
		"longitude": "12.3730747"
	},
	{
		"name": "Spielplatz \"Neue Leipziger Straße\"",
		"district": "Grünau-Nord,West",
		"location": "Neue Leipziger Straße",
		"town": "Leipzig",
		"gaming_devices": [
			{
				"id": 2,
				"title": "Doppelschaukel"
			}
		],
		"equipment": [
			{
				"id": 6,
				"title": "öffentliche Parkplätze vorhanden"
			}
		],
		"lines": "15, 62, 65, 66",
		"stops": "Haltestelle Plovdiver Straße, Haltestelle Plovdiver Straße",
		"latitude": "51.3196375",
		"longitude": "12.2645909"
	},
	{
		"name": "Spielplatz \"Neue Ufer\"",
		"district": "Zentrum-Süd,Mitte",
		"location": "Wundstraße Kreuzung Dufourstraße",
		"town": "Leipzig",
		"gaming_devices": [
			{
				"id": 137,
				"title": "Findlinge"
			}
		],
		"equipment": [
			{
				"id": 6,
				"title": "öffentliche Parkplätze vorhanden"
			}
		],
		"lines": "10, 11",
		"stops": "Haltestelle Hohe Straße",
		"latitude": "51.3269667",
		"longitude": "12.3704802"
	},
	{
		"name": "Spielplatz \"Neustädter Markt - Ostseite\"",
		"district": "Neustadt-Neuschönefeld,Ost",
		"location": "Neustädter Markt",
		"town": "Leipzig",
		"gaming_devices": [
			{
				"id": 10,
				"title": "Kletternetz"
			}
		],
		"equipment": [
			{
				"id": 6,
				"title": "öffentliche Parkplätze vorhanden"
			}
		],
		"lines": "1, 3, 8",
		"stops": "Haltestelle Hermann-Liebmann-Straße/Eisenbahnstraße",
		"latitude": "51.3476367",
		"longitude": "12.4038307"
	},
	{
		"name": "Spielplatz \"Neustädter Markt\"",
		"district": "Neustadt-Neuschönefeld,Ost",
		"location": "Neustädter Markt ",
		"town": "Leipzig",
		"gaming_devices": [
			{
				"id": 1,
				"title": "Rutsche"
			},
			{
				"id": 205,
				"title": "Kletterpilze"
			}
		],
		"equipment": [
			{
				"id": 6,
				"title": "öffentliche Parkplätze vorhanden"
			}
		],
		"lines": "1, 3, 8, 70",
		"stops": "Haltestelle Hermann-Liebmann-Straße/Eisenbahnstraße",
		"latitude": "51.3476367",
		"longitude": "12.4038307"
	},
	{
		"name": "Spielplatz \"Oeserstraße\"",
		"district": "Schleußig,Südwest",
		"location": "Oeserstraße",
		"town": "Leipzig",
		"gaming_devices": [
			{
				"id": 61,
				"title": "Streetballkorb"
			}
		],
		"equipment": [
			{
				"id": 6,
				"title": "öffentliche Parkplätze vorhanden"
			}
		],
		"lines": "1, 2, 60, 74",
		"stops": "Haltestelle Rödelstraße, Haltestelle Rödelstraße",
		"latitude": "51.319761",
		"longitude": "12.343408"
	},
	{
		"name": "Spielplatz \"Offenburger Straße\"",
		"district": "Grünau-Mitte,West",
		"location": "Offenburger Straße",
		"town": "Leipzig",
		"gaming_devices": [
			{
				"id": 77,
				"title": "Drehscheibe"
			}
		],
		"equipment": [
			{
				"id": 6,
				"title": "öffentliche Parkplätze vorhanden"
			}
		],
		"lines": "8, 15, 61, 65, 66, 80E, 161",
		"stops": "Haltestelle Schönauer Ring, Haltestelle Schönauer Ring",
		"latitude": "51.3209385",
		"longitude": "12.2884848"
	},
	{
		"name": "Spielplatz \"Opalstraße\"",
		"district": "Engelsdorf,Ost",
		"location": "Opalstraße / Gaswerksweg",
		"town": "Leipzig",
		"gaming_devices": [
			{
				"id": 1,
				"title": "Rutsche"
			},
			{
				"id": 206,
				"title": "Holzpodest"
			}
		],
		"equipment": [
			{
				"id": 6,
				"title": "öffentliche Parkplätze vorhanden"
			}
		],
		"lines": "172",
		"stops": "Haltestelle Opalstraße",
		"latitude": "51.3405539",
		"longitude": "12.485301"
	},
	{
		"name": "Spielplatz \"Oswaldplatz\"",
		"district": "Reudnitz-Thonberg,Südost",
		"location": "Oswaldstraße / Witzgallstraße",
		"town": "Leipzig",
		"gaming_devices": [
			{
				"id": 13,
				"title": "Tischtennisplatte"
			}
		],
		"equipment": [
			{
				"id": 6,
				"title": "öffentliche Parkplätze vorhanden"
			}
		],
		"lines": "4, 70",
		"stops": "Haltestelle Riebeckstraße/Stötteritzer Straße",
		"latitude": "51.3283408",
		"longitude": "12.4037937"
	},
	{
		"name": "Spielplatz \"Palmengarten\"",
		"district": "Lindenau,Alt-West",
		"location": "im Palmengarten",
		"town": "Leipzig",
		"gaming_devices": [
			{
				"id": 1,
				"title": "Rutsche"
			},
			{
				"id": 210,
				"title": "Kletterelemente"
			}
		],
		"equipment": [
			{
				"id": 6,
				"title": "öffentliche Parkplätze vorhanden"
			}
		],
		"lines": "3, 7, 8, 15, 74, 130, 131",
		"stops": "Haltestelle Angerbrücke, Haltestelle Angerbrücke",
		"latitude": "51.3360348",
		"longitude": "12.3448213"
	},
	{
		"name": "Spielplatz \"Park Breitenfeld\"",
		"district": "Lindenthal,Nordwest",
		"location": "Parkring",
		"town": "Leipzig",
		"gaming_devices": [
			{
				"id": 1,
				"title": "Rutsche"
			},
			{
				"id": 212,
				"title": "Sprossenwand"
			}
		],
		"equipment": [
			{
				"id": 6,
				"title": "öffentliche Parkplätze vorhanden"
			}
		],
		"lines": "87, 88",
		"stops": "Haltestelle Parkring",
		"latitude": "51.406048",
		"longitude": "12.344208"
	},
	{
		"name": "Spielplatz \"Park Dösen\"",
		"district": "Meusdorf,Südost",
		"location": "im Park / Höhe Paul-Flechsig-Straße",
		"town": "Leipzig",
		"gaming_devices": [
			{
				"id": 49,
				"title": "Fussballtore"
			}
		],
		"equipment": [
			{
				"id": 6,
				"title": "öffentliche Parkplätze vorhanden"
			}
		],
		"lines": "75, 172",
		"stops": "Haltestelle Pahlenweg",
		"latitude": "51.2924761",
		"longitude": "12.4214352"
	},
	{
		"name": "Spielplatz \"Park Miltitz\"",
		"district": "Miltitz,West",
		"location": "Rathausring / Geschwister-Scholl-Straße",
		"town": "Leipzig",
		"gaming_devices": [
			{
				"id": 61,
				"title": "Streetballkorb"
			}
		],
		"equipment": [
			{
				"id": 6,
				"title": "öffentliche Parkplätze vorhanden"
			}
		],
		"lines": "65",
		"stops": "Haltestelle Geschwister-Scholl-Straße",
		"latitude": "51.3262426",
		"longitude": "12.2537294"
	},
	{
		"name": "Spielplatz \"Parkstadt 2000 – Drachen\"",
		"district": "Plaußig-Portitz,Nordost",
		"location": "Am Künstlerbogen",
		"town": "Leipzig",
		"gaming_devices": [
			{
				"id": 1,
				"title": "Rutsche"
			},
			{
				"id": 214,
				"title": "Rutschen"
			}
		],
		"equipment": [
			{
				"id": 6,
				"title": "öffentliche Parkplätze vorhanden"
			}
		],
		"lines": "81, 82",
		"stops": "Haltestelle Krätzbergstraße",
		"latitude": "51.3824136",
		"longitude": "12.458479"
	},
	{
		"name": "Spielplatz \"Parkstadt 2000\"",
		"district": "Plaußig-Portitz,Nordost",
		"location": "Werfelstraße ",
		"town": "Leipzig",
		"gaming_devices": [
			{
				"id": 1,
				"title": "Rutsche"
			},
			{
				"id": 215,
				"title": "Wippelement"
			}
		],
		"equipment": [
			{
				"id": 6,
				"title": "öffentliche Parkplätze vorhanden"
			}
		],
		"lines": "81, 82",
		"stops": "Haltestelle Krätzbergstraße",
		"latitude": "51.3812373",
		"longitude": "12.461"
	},
	{
		"name": "Spielplatz \"Plastikgarten\"",
		"district": "Zentrum-West,Mitte",
		"location": "Manetstraße",
		"town": "Leipzig",
		"gaming_devices": [
			{
				"id": 13,
				"title": "Tischtennisplatte"
			}
		],
		"equipment": [
			{
				"id": 6,
				"title": "öffentliche Parkplätze vorhanden"
			}
		],
		"lines": "2, 8, 14, 89",
		"stops": "Haltestelle Neues Rathaus, Haltestelle Neues Rathaus",
		"latitude": "51.3366512",
		"longitude": "12.3683222"
	},
	{
		"name": "Spielplatz \"Platz des 20. Juli 1944\"",
		"district": "Gohlis-Mitte,Nord",
		"location": "Platz des 20. Juli 1944",
		"town": "Leipzig",
		"gaming_devices": [
			{
				"id": 60,
				"title": "Tischtennisplatten"
			}
		],
		"equipment": [
			{
				"id": 6,
				"title": "öffentliche Parkplätze vorhanden"
			}
		],
		"lines": "4, S10",
		"stops": "Haltestelle Coppiplatz, Haltestelle Coppiplatz",
		"latitude": "51.3699061",
		"longitude": "12.3621958"
	},
	{
		"name": "Spielplatz \"Quartierspark Grünauer Welle\"",
		"district": "Grünau-Mitte,West",
		"location": "hinter der Schwimmhalle / Stuttgarter-Allee",
		"town": "Leipzig",
		"gaming_devices": [
			{
				"id": 1,
				"title": "Rutsche"
			},
			{
				"id": 216,
				"title": "3-er Reifenpendel"
			}
		],
		"equipment": [
			{
				"id": 6,
				"title": "öffentliche Parkplätze vorhanden"
			}
		],
		"lines": "1, 2, 66",
		"stops": "Haltestelle Stuttgarter Allee, Haltestelle Stuttgarter Allee",
		"latitude": "51.3185448",
		"longitude": "12.2904345"
	},
	{
		"name": "Spielplatz \"Queckstraße\"",
		"district": "Altlindenau,Alt-West",
		"location": "Queckstraße",
		"town": "Leipzig",
		"gaming_devices": [
			{
				"id": 42,
				"title": "Klettersteine"
			}
		],
		"equipment": [
			{
				"id": 6,
				"title": "öffentliche Parkplätze vorhanden"
			}
		],
		"lines": "7, 130, 131",
		"stops": "Haltestelle Georg-Schwarz-Straße, Haltestelle Georg-Schwarz-Straße",
		"latitude": "51.3372003",
		"longitude": "12.3227526"
	},
	{
		"name": "Spielplatz \"Ramdohrscher Park\"",
		"district": "Anger-Crottendorf,Ost",
		"location": "Grüne Gasse",
		"town": "Leipzig",
		"gaming_devices": [
			{
				"id": 13,
				"title": "Tischtennisplatte"
			}
		],
		"equipment": [
			{
				"id": 6,
				"title": "öffentliche Parkplätze vorhanden"
			}
		],
		"lines": "7",
		"stops": "Haltestelle Wiebelstraße",
		"latitude": "51.3379527",
		"longitude": "12.4107071"
	},
	{
		"name": "Spielplatz \"Rembrandtplatz\"",
		"district": "Lößnig,Süd",
		"location": "Rembrandtstraße",
		"town": "Leipzig",
		"gaming_devices": [
			{
				"id": 13,
				"title": "Tischtennisplatte"
			}
		],
		"equipment": [
			{
				"id": 6,
				"title": "öffentliche Parkplätze vorhanden"
			}
		],
		"lines": "11",
		"stops": "Haltestelle S-Bahnhof Connewitz",
		"latitude": "51.2973355",
		"longitude": "12.3872358"
	},
	{
		"name": "Spielplatz \"Rennbahnweg\"",
		"district": "Zentrum-Süd,Mitte",
		"location": "Rennbahnweg",
		"town": "Leipzig",
		"gaming_devices": [
			{
				"id": 1,
				"title": "Rutsche"
			},
			{
				"id": 224,
				"title": "Minikletterhaus"
			}
		],
		"equipment": [
			{
				"id": 6,
				"title": "öffentliche Parkplätze vorhanden"
			}
		],
		"lines": "89",
		"stops": "Haltestelle Telemannstraße",
		"latitude": "51.3280292",
		"longitude": "12.3612514"
	},
	{
		"name": "Spielplatz \"Reudnitzer Park - Skaterplatz \"",
		"district": "Reudnitz-Thonberg,Südost",
		"location": "Sigismundstraße / Charlottenstraße",
		"town": "Leipzig",
		"gaming_devices": [
			{
				"id": 61,
				"title": "Streetballkorb"
			}
		],
		"equipment": [
			{
				"id": 6,
				"title": "öffentliche Parkplätze vorhanden"
			}
		],
		"lines": "4, 70, 72",
		"stops": "Haltestelle Breitestraße, Haltestelle Breitestraße",
		"latitude": "51.3343804",
		"longitude": "12.4054017"
	},
	{
		"name": "Spielplatz \"Reudnitzer Park – Kletterplatz\"",
		"district": "Reudnitz-Thonberg,Südost",
		"location": "Sigismundstraße / Wittstockstraße",
		"town": "Leipzig",
		"gaming_devices": [
			{
				"id": 64,
				"title": "Holzsteg"
			}
		],
		"equipment": [
			{
				"id": 6,
				"title": "öffentliche Parkplätze vorhanden"
			}
		],
		"lines": "4, 70, 72",
		"stops": "Haltestelle Breitestraße, Haltestelle Breitestraße",
		"latitude": "51.335003",
		"longitude": "12.405752"
	},
	{
		"name": "Spielplatz \"Reudnitzer Terrassen\"",
		"district": "Reudnitz-Thonberg,Südost",
		"location": "Oststraße / Holsteinstraße",
		"town": "Leipzig",
		"gaming_devices": [
			{
				"id": 35,
				"title": "Hängematte"
			}
		],
		"equipment": [
			{
				"id": 6,
				"title": "öffentliche Parkplätze vorhanden"
			}
		],
		"lines": "4, 60",
		"stops": "Haltestelle Riebeckstraße/Oststraße, Haltestelle Riebeckstraße/Oststraße",
		"latitude": "51.3289108",
		"longitude": "12.4097101"
	},
	{
		"name": "Spielplatz \"Richterplatz\"",
		"district": "Zentrum-Nord,Mitte",
		"location": "Trufanowstraße / Frickestraße",
		"town": "Leipzig",
		"gaming_devices": [
			{
				"id": 8,
				"title": "Schaukel"
			}
		],
		"equipment": [
			{
				"id": 6,
				"title": "öffentliche Parkplätze vorhanden"
			}
		],
		"lines": "10, 11, 16",
		"stops": "Haltestelle Chausseehaus",
		"latitude": "51.3563179",
		"longitude": "12.3750277"
	},
	{
		"name": "Spielplatz \"Robert-Koch-Platz\"",
		"district": "Zentrum-Nordwest,Mitte",
		"location": "Eitingonstraße",
		"town": "Leipzig",
		"gaming_devices": [
			{
				"id": 111,
				"title": "Holzfiguren"
			}
		],
		"equipment": [
			{
				"id": 6,
				"title": "öffentliche Parkplätze vorhanden"
			}
		],
		"lines": "4",
		"stops": "Haltestelle Am Mückenschlößchen",
		"latitude": "51.3482311",
		"longitude": "12.3509442"
	},
	{
		"name": "Spielplatz \"Rodelhügel im Friedenspark\"",
		"district": "Zentrum-Südost,Mitte",
		"location": "Linnéstraße / Phillip-Rosenthal-Straße",
		"town": "Leipzig",
		"gaming_devices": [
			{
				"id": 111,
				"title": "Holzfiguren"
			}
		],
		"equipment": [
			{
				"id": 6,
				"title": "öffentliche Parkplätze vorhanden"
			}
		],
		"lines": "15, 2, 16, 60, 74",
		"stops": "Haltestelle Ostplatz, Haltestelle Deutsche Nationalbibliothek",
		"latitude": "51.3251476",
		"longitude": "12.392638"
	},
	{
		"name": "Spielplatz \"Rotheplatz\"",
		"district": "Schönefeld-Abtnaundorf,Nordost",
		"location": "Abtnaundorfer Straße / Lazarusstraße",
		"town": "Leipzig",
		"gaming_devices": [
			{
				"id": 86,
				"title": "Federsitz"
			}
		],
		"equipment": [
			{
				"id": 6,
				"title": "öffentliche Parkplätze vorhanden"
			}
		],
		"lines": "1",
		"stops": "Haltestelle Ossietzkystraße/Gorkistraße",
		"latitude": "51.3604102",
		"longitude": "12.4150258"
	},
	{
		"name": "Spielplatz \"Salbeiweg\"",
		"district": "Wiederitzsch,Nord",
		"location": "Salbeiweg",
		"town": "Leipzig",
		"gaming_devices": [
			{
				"id": 1,
				"title": "Rutsche"
			},
			{
				"id": 233,
				"title": "Minisitzgruppe"
			}
		],
		"equipment": [
			{
				"id": 6,
				"title": "öffentliche Parkplätze vorhanden"
			}
		],
		"lines": "87",
		"stops": "Haltestelle Salzhandelsstraße",
		"latitude": "51.4035462",
		"longitude": "12.3722536"
	},
	{
		"name": "Spielplatz \"Sandgrube Portitz\"",
		"district": "Plaußig-Portitz,Nordost",
		"location": "Sandgrubenweg / Hügelweg",
		"town": "Leipzig",
		"gaming_devices": [
			{
				"id": 60,
				"title": "Tischtennisplatten"
			}
		],
		"equipment": [
			{
				"id": 6,
				"title": "öffentliche Parkplätze vorhanden"
			}
		],
		"lines": "81, 82",
		"stops": "Haltestelle Krätzbergstraße",
		"latitude": "51.3845383",
		"longitude": "12.4595959"
	},
	{
		"name": "Spielplatz \"Schenkendorfplatz\"",
		"district": "Südvorstadt,Süd",
		"location": "Schenkendorfstraße / Lößniger Straße",
		"town": "Leipzig",
		"gaming_devices": [
			{
				"id": 1,
				"title": "Rutsche"
			},
			{
				"id": 234,
				"title": "Hängeseile"
			}
		],
		"equipment": [
			{
				"id": 6,
				"title": "öffentliche Parkplätze vorhanden"
			}
		],
		"lines": "9, 60",
		"stops": "Haltestelle Körnerstraße, Haltestelle Körnerstraße",
		"latitude": "51.3204386",
		"longitude": "12.3817246"
	},
	{
		"name": "Spielplatz \"Schillerhain\"",
		"district": "Gohlis-Süd,Nord",
		"location": "Platnerstraße / Stallbaumstraße",
		"town": "Leipzig",
		"gaming_devices": [
			{
				"id": 13,
				"title": "Tischtennisplatte"
			}
		],
		"equipment": [
			{
				"id": 6,
				"title": "öffentliche Parkplätze vorhanden"
			}
		],
		"lines": "4",
		"stops": "Haltestelle Stallbaumstraße",
		"latitude": "51.3604827",
		"longitude": "12.3562275"
	},
	{
		"name": "Spielplatz \"Schillerplatz\"",
		"district": "Wahren,Nordwest",
		"location": "Auenseestraße",
		"town": "Leipzig",
		"gaming_devices": [
			{
				"id": 13,
				"title": "Tischtennisplatte"
			}
		],
		"equipment": [
			{
				"id": 6,
				"title": "öffentliche Parkplätze vorhanden"
			}
		],
		"lines": "11",
		"stops": "Haltestelle Pittlerstraße",
		"latitude": "51.3745855",
		"longitude": "12.3163705"
	},
	{
		"name": "Spielplatz \"Schmuckplatz\"",
		"district": "Wiederitzsch,Nord",
		"location": "Stentzlerstraße / Hermann-Keller-Straße",
		"town": "Leipzig",
		"gaming_devices": [
			{
				"id": 9,
				"title": "Reck"
			}
		],
		"equipment": [
			{
				"id": 6,
				"title": "öffentliche Parkplätze vorhanden"
			}
		],
		"lines": "16",
		"stops": "Haltestelle Wiederitzsch-Mitte",
		"latitude": "51.398782",
		"longitude": "12.3758013"
	},
	{
		"name": "Spielplatz \"Schönauer Park\"",
		"district": "Schönau,West",
		"location": "Schönauer Lachen",
		"town": "Leipzig",
		"gaming_devices": [
			{
				"id": 96,
				"title": "Trampolin"
			}
		],
		"equipment": [
			{
				"id": 6,
				"title": "öffentliche Parkplätze vorhanden"
			}
		],
		"lines": "8, 15, 66",
		"stops": "Haltestelle Parkallee, Haltestelle Parkallee",
		"latitude": "51.3302074",
		"longitude": "12.2916153"
	},
	{
		"name": "Spielplatz \"Schönauer Welle – Kletterplatz“",
		"district": "Schönau,West",
		"location": "Dornburger Weg",
		"town": "Leipzig",
		"gaming_devices": [
			{
				"id": 6,
				"title": "Kletterstäbe"
			}
		],
		"equipment": [
			{
				"id": 6,
				"title": "öffentliche Parkplätze vorhanden"
			}
		],
		"lines": "8, 62",
		"stops": "Haltestelle Grünau-Nord, Haltestelle Kiewer Straße",
		"latitude": "51.324379",
		"longitude": "12.2822712"
	},
	{
		"name": "Spielplatz \"Schönauer Welle – Sandspielplatz“",
		"district": "Schönau,West",
		"location": "unterhalb Römhilder Weg",
		"town": "Leipzig",
		"gaming_devices": [
			{
				"id": 42,
				"title": "Klettersteine"
			}
		],
		"equipment": [
			{
				"id": 6,
				"title": "öffentliche Parkplätze vorhanden"
			}
		],
		"lines": "8, 62",
		"stops": "Haltestelle Grünau-Nord, Haltestelle Kiewer Straße",
		"latitude": "51.3227469",
		"longitude": "12.2774825"
	},
	{
		"name": "Spielplatz \"Schönauer Welle – Schaukelplatz“",
		"district": "Schönau,West",
		"location": "unterhalb Römhilder Weg",
		"town": "Leipzig",
		"gaming_devices": [
			{
				"id": 1,
				"title": "Rutsche"
			},
			{
				"id": 241,
				"title": "Sechseckschaukel"
			}
		],
		"equipment": [
			{
				"id": 6,
				"title": "öffentliche Parkplätze vorhanden"
			}
		],
		"lines": "8, 62",
		"stops": "Grünau-Nord, Kiewer Straße",
		"latitude": "51.3227469",
		"longitude": "12.2774825"
	},
	{
		"name": "Spielplatz \"Schönauer Welle – Sportwiese\"",
		"district": "Schönau,West",
		"location": "Dornburger Weg",
		"town": "Leipzig",
		"gaming_devices": [
			{
				"id": 241,
				"title": "Sechseckschaukel"
			}
		],
		"equipment": [
			{
				"id": 6,
				"title": "öffentliche Parkplätze vorhanden"
			}
		],
		"lines": "8, 62",
		"stops": "Haltestelle Grünau-Nord, Haltestelle Kiewer Straße",
		"latitude": "51.324379",
		"longitude": "12.2822712"
	},
	{
		"name": "Spielplatz \"Schönauer Welle – Tischtennisplatz“",
		"district": "Schönau,West",
		"location": "unterhalb Römhilder Weg / Kiewer Straße",
		"town": "Leipzig",
		"gaming_devices": [
			{
				"id": 13,
				"title": "Tischtennisplatte"
			}
		],
		"equipment": [
			{
				"id": 6,
				"title": "öffentliche Parkplätze vorhanden"
			}
		],
		"lines": "15, 62, 61, 65, 80E, 161",
		"stops": "Haltestelle Am Kirchberg, Haltestelle Kiewer Straße, Haltestelle Am Kirchberg",
		"latitude": "51.3192051",
		"longitude": "12.2776237"
	},
	{
		"name": "Spielplatz \"Schulze-Delitzsch-Straße\"",
		"district": "Neustadt-Neuschönefeld,Ost",
		"location": "Schulze-Delitzsch-Straße / Rosa-Luxemburg-Straße",
		"town": "Leipzig",
		"gaming_devices": [
			{
				"id": 13,
				"title": "Tischtennisplatte"
			}
		],
		"equipment": [
			{
				"id": 6,
				"title": "öffentliche Parkplätze vorhanden"
			}
		],
		"lines": "1, 3, 8",
		"stops": "Haltestelle Einertstraße",
		"latitude": "51.3464047",
		"longitude": "12.3947384"
	},
	{
		"name": "Spielplatz \"Schwartzeplatz\"",
		"district": "Kleinzschocher,Südwest",
		"location": "Schwartzestraße",
		"town": "Leipzig",
		"gaming_devices": [
			{
				"id": 23,
				"title": "Karussell"
			}
		],
		"equipment": [
			{
				"id": 6,
				"title": "öffentliche Parkplätze vorhanden"
			}
		],
		"lines": "3",
		"stops": "Haltestelle Schwartzestraße",
		"latitude": "51.3154695",
		"longitude": "12.3235036"
	},
	{
		"name": "Spielplatz \"Selliner Straße\"",
		"district": "Lausen-Grünau,West",
		"location": "Selliner Straße",
		"town": "Leipzig",
		"gaming_devices": [
			{
				"id": 8,
				"title": "Schaukel"
			}
		],
		"equipment": [
			{
				"id": 6,
				"title": "öffentliche Parkplätze vorhanden"
			}
		],
		"lines": "62, 66",
		"stops": "Haltestelle Selliner Straße - Gesundheitszentrum",
		"latitude": "51.3133805",
		"longitude": "12.263152"
	},
	{
		"name": "Spielplatz \"Siedlereck\"",
		"district": "Liebertwolkwitz,Südost",
		"location": "Siedlereck / Oberholzstraße",
		"town": "Leipzig",
		"gaming_devices": [
			{
				"id": 1,
				"title": "Rutsche"
			},
			{
				"id": 246,
				"title": "Holzspielbank"
			}
		],
		"equipment": [
			{
				"id": 6,
				"title": "öffentliche Parkplätze vorhanden"
			}
		],
		"lines": "75",
		"stops": "Haltestelle Störmthaler Straße",
		"latitude": "51.2771155",
		"longitude": "12.4737618"
	},
	{
		"name": "Spielplatz \"Siedlung Meusdorf\"",
		"district": "Meusdorf,Südost",
		"location": "Schwarzenbergweg",
		"town": "Leipzig",
		"gaming_devices": [
			{
				"id": 38,
				"title": "Balancierbalken"
			}
		],
		"equipment": [
			{
				"id": 6,
				"title": "öffentliche Parkplätze vorhanden"
			}
		],
		"lines": "15, 75, 172",
		"stops": "Haltestelle Meusdorf, Haltestelle Monarchenhügel",
		"latitude": "51.2901967",
		"longitude": "12.4358545"
	},
	{
		"name": "Spielplatz \"Simonsplatz\"",
		"district": "Reudnitz-Thonberg,Südost",
		"location": "Nobbeweg / Reinhold-Krüger-Straße",
		"town": "Leipzig",
		"gaming_devices": [
			{
				"id": 13,
				"title": "Tischtennisplatte"
			}
		],
		"equipment": [
			{
				"id": 6,
				"title": "öffentliche Parkplätze vorhanden"
			}
		],
		"lines": "4",
		"stops": "Haltestelle S-Bahnhof Stötteritz",
		"latitude": "51.3267278",
		"longitude": "12.4093506"
	},
	{
		"name": "Spielplatz \"Skaterpark\"",
		"district": "Grünau-Ost,West",
		"location": "Am Übergang",
		"town": "Leipzig",
		"gaming_devices": [
			{
				"id": 1,
				"title": "Rutsche"
			},
			{
				"id": 248,
				"title": "Skaterparcour"
			}
		],
		"equipment": [
			{
				"id": 6,
				"title": "öffentliche Parkplätze vorhanden"
			}
		],
		"lines": "8, 15, 61, 161",
		"stops": "Haltestelle Parkallee, Haltestelle Weißdornstraße",
		"latitude": "51.3217887",
		"longitude": "12.3045583"
	},
	{
		"name": "Spielplatz \"Sommerfelder Weg\"",
		"district": "Paunsdorf,Ost",
		"location": "Sommerfelder Weg",
		"town": "Leipzig",
		"gaming_devices": [
			{
				"id": 18,
				"title": "Kletterturm"
			}
		],
		"equipment": [
			{
				"id": 6,
				"title": "öffentliche Parkplätze vorhanden"
			}
		],
		"lines": "3, 7, 90",
		"stops": "Haltestelle Paunsdorf Center, Haltestelle Paunsdorf Center",
		"latitude": "51.3481509",
		"longitude": "12.4802158"
	},
	{
		"name": "Spielplatz \"Sonnenpark\"",
		"district": "Probstheida,Südost",
		"location": "Buckyweg",
		"town": "Leipzig",
		"gaming_devices": [
			{
				"id": 10,
				"title": "Kletternetz"
			}
		],
		"equipment": [
			{
				"id": 6,
				"title": "öffentliche Parkplätze vorhanden"
			}
		],
		"lines": "15, 76",
		"stops": "Haltestelle Franzosenallee, Haltestelle Franzosenallee",
		"latitude": "51.3017531",
		"longitude": "12.4345187"
	},
	{
		"name": "Spielplatz \"Spielhügel Am Neptunweg\"",
		"district": "Grünau-Nord,West",
		"location": "Neptunweg",
		"town": "Leipzig",
		"gaming_devices": [
			{
				"id": 2,
				"title": "Doppelschaukel"
			}
		],
		"equipment": [
			{
				"id": 6,
				"title": "öffentliche Parkplätze vorhanden"
			}
		],
		"lines": "15",
		"stops": "Haltestelle Saturnstraße",
		"latitude": "51.3254062",
		"longitude": "12.2685109"
	},
	{
		"name": "Spielplatz \"Stadtplatz\"",
		"district": "Volkmarsdorf,Ost",
		"location": "Mariannenstraße / Elisabethstraße",
		"town": "Leipzig",
		"gaming_devices": [
			{
				"id": 13,
				"title": "Tischtennisplatte"
			}
		],
		"equipment": [
			{
				"id": 6,
				"title": "öffentliche Parkplätze vorhanden"
			}
		],
		"lines": "1, 3, 8, 70",
		"stops": "Haltestelle Hermann-Liebmann-Straße/Eisenbahnstraße",
		"latitude": "51.3444654",
		"longitude": "12.4090467"
	},
	{
		"name": "Spielplatz \"Stadtteilpark Plagwitz\"",
		"district": "Plagwitz,Südwest",
		"location": "Industriestraße",
		"town": "Leipzig",
		"gaming_devices": [
			{
				"id": 1,
				"title": "Rutsche"
			},
			{
				"id": 252,
				"title": "Kletterstifte"
			}
		],
		"equipment": [
			{
				"id": 6,
				"title": "öffentliche Parkplätze vorhanden"
			}
		],
		"lines": "3, 74",
		"stops": "Haltestelle Elster-Passage, Haltestelle Elster-Passage",
		"latitude": "51.3272469",
		"longitude": "12.3375587"
	},
	{
		"name": "Spielplatz \"Stadtteilpark Rabet - Ball- und Skaterplatz\"",
		"district": "Neustadt-Neuschönefeld,Ost",
		"location": "Rabet",
		"town": "Leipzig",
		"gaming_devices": [
			{
				"id": 1,
				"title": "Rutsche"
			},
			{
				"id": 254,
				"title": "Beachballplatz"
			}
		],
		"equipment": [
			{
				"id": 6,
				"title": "öffentliche Parkplätze vorhanden"
			}
		],
		"lines": "1, 3, 8, 70",
		"stops": "Haltestelle Hermann-Liebmann-Straße/Eisenbahnstraße",
		"latitude": "51.3434382",
		"longitude": "12.4029903"
	},
	{
		"name": "Spielplatz \"Stadtteilpark Rabet - Holzspielplatz\"",
		"district": "Neustadt-Neuschönefeld,Ost",
		"location": "Rabet",
		"town": "Leipzig",
		"gaming_devices": [
			{
				"id": 122,
				"title": "Hangelstrecke"
			}
		],
		"equipment": [
			{
				"id": 6,
				"title": "öffentliche Parkplätze vorhanden"
			}
		],
		"lines": "1, 3, 8, 70",
		"stops": "Haltestelle Hermann-Liebmann-Straße/Eisenbahnstraße",
		"latitude": "51.3434382",
		"longitude": "12.4029903"
	},
	{
		"name": "Spielplatz \"Stadtteilpark Rabet - Piratenplatz Bounty\"",
		"district": "Neustadt-Neuschönefeld,Ost",
		"location": "Rabet",
		"town": "Leipzig",
		"gaming_devices": [
			{
				"id": 23,
				"title": "Karussell"
			}
		],
		"equipment": [
			{
				"id": 6,
				"title": "öffentliche Parkplätze vorhanden"
			}
		],
		"lines": "1, 3, 8, 70",
		"stops": "Haltestelle Hermann-Liebmann-Straße/Eisenbahnstraße",
		"latitude": "51.3434382",
		"longitude": "12.4029903"
	},
	{
		"name": "Spielplatz \"Stadtteilpark Rabet - Schaukelplatz\"",
		"district": "Neustadt-Neuschönefeld,Ost",
		"location": "Rabet",
		"town": "Leipzig",
		"gaming_devices": [
			{
				"id": 8,
				"title": "Schaukel"
			}
		],
		"equipment": [
			{
				"id": 6,
				"title": "öffentliche Parkplätze vorhanden"
			}
		],
		"lines": "1, 3, 8, 70",
		"stops": "Haltestelle Hermann-Liebmann-Straße/Eisenbahnstraße",
		"latitude": "51.3434382",
		"longitude": "12.4029903"
	},
	{
		"name": "Spielplatz \"Stahmelner Anger\"",
		"district": "Lützschena-Stahmeln,Nordwest",
		"location": "Stahmelner Anger",
		"town": "Leipzig",
		"gaming_devices": [
			{
				"id": 119,
				"title": "Rutsch- und Kletterturm"
			}
		],
		"equipment": [
			{
				"id": 6,
				"title": "öffentliche Parkplätze vorhanden"
			}
		],
		"lines": "11",
		"stops": "Haltestelle Stahmeln",
		"latitude": "51.376055",
		"longitude": "12.3041655"
	},
	{
		"name": "Spielplatz \"Stahmelner Straße\"",
		"district": "Lützschena-Stahmeln,Nordwest",
		"location": "Stahmelner Straße",
		"town": "Leipzig",
		"gaming_devices": [
			{
				"id": 1,
				"title": "Rutsche"
			},
			{
				"id": 257,
				"title": "Kreidetafel"
			}
		],
		"equipment": [
			{
				"id": 6,
				"title": "öffentliche Parkplätze vorhanden"
			}
		],
		"lines": "11",
		"stops": "Haltestelle Stahmeln",
		"latitude": "51.3754009",
		"longitude": "12.307685"
	},
	{
		"name": "Spielplatz \"Steinplatz\"",
		"district": "Südvorstadt,Süd",
		"location": "Steinstraße / Bernhard-Göring-Straße",
		"town": "Leipzig",
		"gaming_devices": [
			{
				"id": 1,
				"title": "Rutsche"
			},
			{
				"id": 261,
				"title": "Klettersteg"
			}
		],
		"equipment": [
			{
				"id": 6,
				"title": "öffentliche Parkplätze vorhanden"
			}
		],
		"lines": "9, 100",
		"stops": "Haltestelle Steinplatz, Haltestelle Steinplatz",
		"latitude": "51.3195612",
		"longitude": "12.3767275"
	},
	{
		"name": "Spielplatz \"Stephaniplatz\"",
		"district": "Reudnitz-Thonberg,Südost",
		"location": "Crusiusstraße / Stephaniplatz",
		"town": "Leipzig",
		"gaming_devices": [
			{
				"id": 1,
				"title": "Rutsche"
			},
			{
				"id": 265,
				"title": "Spielröhren"
			}
		],
		"equipment": [
			{
				"id": 6,
				"title": "öffentliche Parkplätze vorhanden"
			}
		],
		"lines": "4, 7, 70, 72, 73",
		"stops": "Haltestelle Gerichtsweg, Haltestelle Reudnitz-Koehlerstraße",
		"latitude": "51.3382914",
		"longitude": "12.3992117"
	},
	{
		"name": "Spielplatz \"Stötteritzer Wäldchen – Kleiner Schneck\"",
		"district": "Stötteritz,Südost",
		"location": "Oberdorfstraße",
		"town": "Leipzig",
		"gaming_devices": [
			{
				"id": 1,
				"title": "Rutsche"
			},
			{
				"id": 267,
				"title": "Spirale"
			}
		],
		"equipment": [
			{
				"id": 6,
				"title": "öffentliche Parkplätze vorhanden"
			}
		],
		"lines": "4, 74, 79",
		"stops": "Haltestelle Kolmstraße, Haltestelle Kolmstraße",
		"latitude": "51.3214427",
		"longitude": "12.4248776"
	},
	{
		"name": "Spielplatz \"Stötteritzer Wäldchen – Kletterplatz\"",
		"district": "Stötteritz,Südost",
		"location": "Oberdorfstraße",
		"town": "Leipzig",
		"gaming_devices": [
			{
				"id": 1,
				"title": "Rutsche"
			},
			{
				"id": 268,
				"title": "Kletterholz \"Waldtelefon\""
			}
		],
		"equipment": [
			{
				"id": 6,
				"title": "öffentliche Parkplätze vorhanden"
			}
		],
		"lines": "4, 74, 79",
		"stops": "Haltestelle Kolmstraße, Haltestelle Kolmstraße",
		"latitude": "51.3214427",
		"longitude": "12.4248776"
	},
	{
		"name": "Spielplatz \"Stötteritzer Wäldchen – Rodelhügel\"",
		"district": "Stötteritz,Südost",
		"location": "Oberdorfstraße",
		"town": "Leipzig",
		"gaming_devices": [
			{
				"id": 268,
				"title": "Kletterholz \"Waldtelefon\""
			}
		],
		"equipment": [
			{
				"id": 6,
				"title": "öffentliche Parkplätze vorhanden"
			}
		],
		"lines": "4, 74, 79",
		"stops": "Haltestelle Kolmstraße, Haltestelle Kolmstraße",
		"latitude": "51.3214427",
		"longitude": "12.4248776"
	},
	{
		"name": "Spielplatz \"Stötteritzer Wäldchen – Tischtennisplatz\"",
		"district": "Stötteritz,Südost",
		"location": "Oberdorfstraße",
		"town": "Leipzig",
		"gaming_devices": [
			{
				"id": 13,
				"title": "Tischtennisplatte"
			}
		],
		"equipment": [
			{
				"id": 6,
				"title": "öffentliche Parkplätze vorhanden"
			}
		],
		"lines": "4, 74, 79",
		"stops": "Haltestelle Kolmstraße, Haltestelle Kolmstraße",
		"latitude": "51.3214427",
		"longitude": "12.4248776"
	},
	{
		"name": "Spielplatz \"Stötteritzer Wäldchen – Waldspielplatz\"",
		"district": "Stötteritz,Südost",
		"location": "Oberdorfstraße",
		"town": "Leipzig",
		"gaming_devices": [
			{
				"id": 202,
				"title": "Holzklettergerüst"
			}
		],
		"equipment": [
			{
				"id": 6,
				"title": "öffentliche Parkplätze vorhanden"
			}
		],
		"lines": "4, 74, 79",
		"stops": "Haltestelle Kolmstraße, Haltestelle Kolmstraße",
		"latitude": "51.3214427",
		"longitude": "12.4248776"
	},
	{
		"name": "Spielplatz \"Streetballplatz im Friedenspark\"",
		"district": "Zentrum-Südost,Mitte",
		"location": "Linnéstraße / Phillip-Rosenthal-Straße",
		"town": "Leipzig",
		"gaming_devices": [
			{
				"id": 61,
				"title": "Streetballkorb"
			}
		],
		"equipment": [
			{
				"id": 6,
				"title": "öffentliche Parkplätze vorhanden"
			}
		],
		"lines": "15, 2, 16, 60, 74",
		"stops": "Haltestelle Ostplatz, Haltestelle Deutsche Nationalbibliothek",
		"latitude": "51.3251476",
		"longitude": "12.392638"
	},
	{
		"name": "Spielplatz \"Stuttgarter Allee\"",
		"district": "Grünau-Mitte,West",
		"location": "Stuttgarter Allee ",
		"town": "Leipzig",
		"gaming_devices": [
			{
				"id": 150,
				"title": "Rutschstangen"
			}
		],
		"equipment": [
			{
				"id": 6,
				"title": "öffentliche Parkplätze vorhanden"
			}
		],
		"lines": "8, 15, 61, 65, 66, 80E, 161",
		"stops": "Haltestelle Schönauer Ring, Haltestelle Schönauer Ring",
		"latitude": "51.3185448",
		"longitude": "12.2904345"
	},
	{
		"name": "Spielplatz \"Sylter Straße\"",
		"district": "Gohlis-Nord,Nord",
		"location": "Sylter Straße / Bremer Straße ",
		"town": "Leipzig",
		"gaming_devices": [
			{
				"id": 1,
				"title": "Rutsche"
			},
			{
				"id": 269,
				"title": "Kletterbalken"
			}
		],
		"equipment": [
			{
				"id": 6,
				"title": "öffentliche Parkplätze vorhanden"
			}
		],
		"lines": "4",
		"stops": "Haltestelle Beyerleinstraße",
		"latitude": "51.3780084",
		"longitude": "12.3647038"
	},
	{
		"name": "Spielplatz \"Teichstraße\"",
		"district": "Connewitz,Süd",
		"location": "Teichstraße/Zugang Mühlholz ",
		"town": "Leipzig",
		"gaming_devices": [
			{
				"id": 202,
				"title": "Holzklettergerüst"
			}
		],
		"equipment": [
			{
				"id": 6,
				"title": "öffentliche Parkplätze vorhanden"
			}
		],
		"lines": "9, 107",
		"stops": "Haltestelle Mathildenstraße, Haltestelle Mathildenstraße",
		"latitude": "51.3396955",
		"longitude": "12.3730747"
	},
	{
		"name": "Spielplatz \"Theobald-Beer-Straße\"",
		"district": "Wiederitzsch,Nord",
		"location": "Theobald-Beer-Straße ",
		"town": "Leipzig",
		"gaming_devices": [
			{
				"id": 4,
				"title": "Wippe"
			}
		],
		"equipment": [
			{
				"id": 32,
				"title": "öffentliche P+R Parkplätze an der Georg-Herwegh-Straße vorhanden"
			}
		],
		"lines": "16",
		"stops": "Haltestelle Georg-Herwegh-Straße",
		"latitude": "51.398243",
		"longitude": "12.3797123"
	},
	{
		"name": "Spielplatz \"Thiemstraße\"",
		"district": "Stötteritz,Südost",
		"location": "Thiemstraße / Václac-Neumann-Straße",
		"town": "Leipzig",
		"gaming_devices": [
			{
				"id": 45,
				"title": "Reifenschaukel"
			}
		],
		"equipment": [
			{
				"id": 6,
				"title": "öffentliche Parkplätze vorhanden"
			}
		],
		"lines": "4, 74, 79",
		"stops": "Haltestelle Rathaus Stötteritz, Haltestelle Schwimmhalle Südost",
		"latitude": "51.3365878",
		"longitude": "12.4138141"
	},
	{
		"name": "Spielplatz \"Thonberger Park\"",
		"district": "Stötteritz,Südost",
		"location": "Lichtenbergweg / Güntzstraße",
		"town": "Leipzig",
		"gaming_devices": [
			{
				"id": 1,
				"title": "Rutsche"
			},
			{
				"id": 272,
				"title": "Holzkletterhaus"
			}
		],
		"equipment": [
			{
				"id": 6,
				"title": "öffentliche Parkplätze vorhanden"
			}
		],
		"lines": "2, 15, 70, 74",
		"stops": "Haltestelle Naunhofer Straße, Haltestelle Naunhofer Straße",
		"latitude": "51.3212463",
		"longitude": "12.4096506"
	},
	{
		"name": "Spielplatz \"Tischtennisplatz im Friedenspark\"",
		"district": "Zentrum-Südost,Mitte",
		"location": "Linnéstraße / Phillip-Rosenthal-Straße",
		"town": "Leipzig",
		"gaming_devices": [
			{
				"id": 60,
				"title": "Tischtennisplatten"
			}
		],
		"equipment": [
			{
				"id": 6,
				"title": "öffentliche Parkplätze vorhanden"
			}
		],
		"lines": "15, 2, 16, 60, 74",
		"stops": "Haltestelle Ostplatz, Haltestelle Deutsche Nationalbibliothek",
		"latitude": "51.3251476",
		"longitude": "12.392638"
	},
	{
		"name": "Spielplatz \"Titaniaweg\"",
		"district": "Grünau-Nord,West",
		"location": "Titaniaweg",
		"town": "Leipzig",
		"gaming_devices": [
			{
				"id": 1,
				"title": "Rutsche"
			}
		],
		"equipment": [
			{
				"id": 6,
				"title": "öffentliche Parkplätze vorhanden"
			}
		],
		"lines": "15, 62, 65, 66",
		"stops": "Haltestelle Kiewer Straße, Haltestelle Kiewer Straße",
		"latitude": "51.31996",
		"longitude": "12.2762173"
	},
	{
		"name": "Spielplatz \"Topasstraße\"",
		"district": "Engelsdorf,Ost",
		"location": "Topasstraße (Richtung Hans-Weigel-Straße)",
		"town": "Leipzig",
		"gaming_devices": [
			{
				"id": 28,
				"title": "Kletterholz"
			}
		],
		"equipment": [
			{
				"id": 6,
				"title": "öffentliche Parkplätze vorhanden"
			}
		],
		"lines": "172",
		"stops": "Haltestelle Opalstraße",
		"latitude": "51.3393006",
		"longitude": "12.4763541"
	},
	{
		"name": "Spielplatz \"Topasstraße/Höhe Gaswerksweg\"",
		"district": "Engelsdorf,Ost",
		"location": "Topasstraße",
		"town": "Leipzig",
		"gaming_devices": [
			{
				"id": 3,
				"title": "Klettergerüst"
			}
		],
		"equipment": [
			{
				"id": 6,
				"title": "öffentliche Parkplätze vorhanden"
			}
		],
		"lines": "172",
		"stops": "Haltestelle Opalstraße",
		"latitude": "51.3401628",
		"longitude": "12.4837463"
	},
	{
		"name": "Spielplatz \"Uranuspark\"",
		"district": "Grünau-Nord,West",
		"location": "Uranusstraße",
		"town": "Leipzig",
		"gaming_devices": [
			{
				"id": 61,
				"title": "Streetballkorb"
			}
		],
		"equipment": [
			{
				"id": 6,
				"title": "öffentliche Parkplätze vorhanden"
			}
		],
		"lines": "62, 66",
		"stops": "Haltestelle Uranusstraße",
		"latitude": "51.3230753",
		"longitude": "12.2717667"
	},
	{
		"name": "Spielplatz \"Verdistraße\"",
		"district": "Engelsdorf,Ost",
		"location": "Verdistraße",
		"town": "Leipzig",
		"gaming_devices": [
			{
				"id": 1,
				"title": "Rutsche"
			}
		],
		"equipment": [
			{
				"id": 6,
				"title": "öffentliche Parkplätze vorhanden"
			}
		],
		"lines": "172",
		"stops": "Haltestelle Opalstraße",
		"latitude": "51.3393023",
		"longitude": "12.4841195"
	},
	{
		"name": "Spielplatz \"Volkmarsdorfer Markt\"",
		"district": "Volkmarsdorf,Ost",
		"location": "Zolikoferstraße / Lukasstraße",
		"town": "Leipzig",
		"gaming_devices": [
			{
				"id": 42,
				"title": "Klettersteine"
			}
		],
		"equipment": [
			{
				"id": 6,
				"title": "öffentliche Parkplätze vorhanden"
			}
		],
		"lines": "3, 7, 8, 70",
		"stops": "Haltestelle Torgauer Platz, Haltestelle Dornbergerstraße",
		"latitude": "51.3434288",
		"longitude": "12.4098156"
	},
	{
		"name": "Spielplatz \"Volksgarten\"",
		"district": "Schönefeld-Ost,Nordost",
		"location": "Volksgartenstraße / Torgauer Straße",
		"town": "Leipzig",
		"gaming_devices": [
			{
				"id": 123,
				"title": "Balanciersteg"
			}
		],
		"equipment": [
			{
				"id": 6,
				"title": "öffentliche Parkplätze vorhanden"
			}
		],
		"lines": "3",
		"stops": "Haltestelle Volksgartenstraße",
		"latitude": "51.3578412",
		"longitude": "12.4390044"
	},
	{
		"name": "Spielplatz \"Volkshain Stünz\"",
		"district": "Anger-Crottendorf,Ost",
		"location": "Pflaumenallee / Borngasse",
		"town": "Leipzig",
		"gaming_devices": [
			{
				"id": 123,
				"title": "Balanciersteg"
			}
		],
		"equipment": [
			{
				"id": 6,
				"title": "öffentliche Parkplätze vorhanden"
			}
		],
		"lines": "77",
		"stops": "Haltestelle Stünz",
		"latitude": "51.3374519",
		"longitude": "12.4321071"
	},
	{
		"name": "Spielplatz \"Volkspark Kleinzschocher – Ballspielplatz\"",
		"district": "Kleinzschocher,Südwest",
		"location": "im Volkspark",
		"town": "Leipzig",
		"gaming_devices": [
			{
				"id": 1,
				"title": "Rutsche"
			},
			{
				"id": 274,
				"title": "Torwände aus Stein"
			}
		],
		"equipment": [
			{
				"id": 6,
				"title": "öffentliche Parkplätze vorhanden"
			}
		],
		"lines": "1, 2, 60, 74",
		"stops": "Haltestelle Rödelstraße, Haltestelle Rödelstraße",
		"latitude": "51.233151",
		"longitude": "12.385111"
	},
	{
		"name": "Spielplatz \"Volkspark Kleinzschocher – Holzspielplatz\"",
		"district": "Kleinzschocher,Südwest",
		"location": "am Eingang zum Park",
		"town": "Leipzig",
		"gaming_devices": [
			{
				"id": 46,
				"title": "Steintier"
			}
		],
		"equipment": [
			{
				"id": 6,
				"title": "öffentliche Parkplätze vorhanden"
			}
		],
		"lines": "3",
		"stops": "Haltestelle Schwartzestraße",
		"latitude": "51.3396955",
		"longitude": "12.3730747"
	},
	{
		"name": "Spielplatz \"Volleyball- und Fitnessplatz im Friedenspark\"",
		"district": "Zentrum-Südost,Mitte",
		"location": "Linnéstraße / Phillip-Rosenthal-Straße",
		"town": "Leipzig",
		"gaming_devices": [
			{
				"id": 1,
				"title": "Rutsche"
			},
			{
				"id": 276,
				"title": "Bouleplatz"
			}
		],
		"equipment": [
			{
				"id": 6,
				"title": "öffentliche Parkplätze vorhanden"
			}
		],
		"lines": "15, 2, 16, 60, 74",
		"stops": "Haltestelle Ostplatz, Haltestelle Deutsche Nationalbibliothek",
		"latitude": "51.3251476",
		"longitude": "12.392638"
	},
	{
		"name": "Spielplatz \"Vorderes Rosental\"",
		"district": "Zentrum-Nordwest,Mitte",
		"location": "Emil-Fuchs-Straße / Rückseite Zoo",
		"town": "Leipzig",
		"gaming_devices": [
			{
				"id": 235,
				"title": "Steintiere"
			}
		],
		"equipment": [
			{
				"id": 6,
				"title": "öffentliche Parkplätze vorhanden"
			}
		],
		"lines": "12",
		"stops": "Haltestelle Am Zoo",
		"latitude": "51.3396955",
		"longitude": "12.3730747"
	},
	{
		"name": "Spielplatz \"Waldluft\"",
		"district": "Leutzsch,Alt-West",
		"location": "Am KGV \"Waldluft\"/ im Forst",
		"town": "Leipzig",
		"gaming_devices": [
			{
				"id": 1,
				"title": "Rutsche"
			},
			{
				"id": 278,
				"title": "Holzsitzgruppe"
			}
		],
		"equipment": [
			{
				"id": 30,
				"title": "Die öffentlichen Parkplätze befinden sich außerhalb des Forstgebietes."
			}
		],
		"lines": "67",
		"stops": "Haltestelle Mathiesenstraße",
		"latitude": "51.3396955",
		"longitude": "12.3730747"
	},
	{
		"name": "Spielplatz \"Walter-Markov-Ring\"",
		"district": "Holzhausen,Südost",
		"location": "Walter-Markov-Ring / Höhe Maienweg",
		"town": "Leipzig",
		"gaming_devices": [
			{
				"id": 2,
				"title": "Doppelschaukel"
			}
		],
		"equipment": [
			{
				"id": 6,
				"title": "öffentliche Parkplätze vorhanden"
			}
		],
		"lines": "74, 172",
		"stops": "Haltestelle Sophienhöhe",
		"latitude": "51.3130961",
		"longitude": "12.4532053"
	},
	{
		"name": "Spielplatz \"Weidlichstraße\"",
		"district": "Sellerhausen-Stünz,Ost",
		"location": "Weidlichstraße",
		"town": "Leipzig",
		"gaming_devices": [
			{
				"id": 13,
				"title": "Tischtennisplatte"
			}
		],
		"equipment": [
			{
				"id": 6,
				"title": "öffentliche Parkplätze vorhanden"
			}
		],
		"lines": "90",
		"stops": "Haltestelle Elisabeth-Schumacher-Straße",
		"latitude": "51.3490982",
		"longitude": "12.437792"
	},
	{
		"name": "Spielplatz \"Weidmannstraße\"",
		"district": "Neustadt-Neuschönefeld,Ost",
		"location": "Weidmannstraße/Reclamstraße",
		"town": "Leipzig",
		"gaming_devices": [
			{
				"id": 13,
				"title": "Tischtennisplatte"
			}
		],
		"equipment": [
			{
				"id": 6,
				"title": "öffentliche Parkplätze vorhanden"
			}
		],
		"lines": "4, 7",
		"stops": "Haltestelle Gerichtsweg",
		"latitude": "51.3418614",
		"longitude": "12.4001048"
	},
	{
		"name": "Spielplatz \"Weißeplatz\"",
		"district": "Stötteritz,Südost",
		"location": "Weißestraße / Arnoldstraße",
		"town": "Leipzig",
		"gaming_devices": [
			{
				"id": 1,
				"title": "Rutsche"
			},
			{
				"id": 280,
				"title": "Rutschhalbkugel"
			}
		],
		"equipment": [
			{
				"id": 6,
				"title": "öffentliche Parkplätze vorhanden"
			}
		],
		"lines": "4",
		"stops": "Haltestelle Weißestraße",
		"latitude": "51.3211187",
		"longitude": "12.4190271"
	},
	{
		"name": "Spielplatz \"WG Mockau\"",
		"district": "Mockau-Nord,Nordost",
		"location": "Mockauer Straße / Tauchaer Straße",
		"town": "Leipzig",
		"gaming_devices": [
			{
				"id": 1,
				"title": "Rutsche"
			},
			{
				"id": 281,
				"title": "Baumstämme"
			}
		],
		"equipment": [
			{
				"id": 6,
				"title": "öffentliche Parkplätze vorhanden"
			}
		],
		"lines": "1, 9, 70, 80",
		"stops": "Haltestelle Mockauer Post, Haltestelle Mockauer Post",
		"latitude": "51.3820499",
		"longitude": "12.4442831"
	},
	{
		"name": "Spielplatz \"WG Möckern\"",
		"district": "Möckern,Nordwest",
		"location": "Yorckstraße / Christian-Ferkel-Straße",
		"town": "Leipzig",
		"gaming_devices": [
			{
				"id": 77,
				"title": "Drehscheibe"
			}
		],
		"equipment": [
			{
				"id": 6,
				"title": "öffentliche Parkplätze vorhanden"
			}
		],
		"lines": "10, 11, 90",
		"stops": "Haltestelle Dantestraße, Haltestelle Slevogtstraße",
		"latitude": "51.3697277",
		"longitude": "12.3406599"
	},
	{
		"name": "Spielplatz \"WG Paunsdorf\"",
		"district": "Paunsdorf,Ost",
		"location": "Platanenstraße",
		"town": "Leipzig",
		"gaming_devices": [
			{
				"id": 35,
				"title": "Hängematte"
			}
		],
		"equipment": [
			{
				"id": 6,
				"title": "öffentliche Parkplätze vorhanden"
			}
		],
		"lines": "7, 8",
		"stops": "Haltestelle Ahornstraße",
		"latitude": "51.3546466",
		"longitude": "12.4623766"
	},
	{
		"name": "Spielplatz \"WG Schönefeld\"",
		"district": "Schönefeld-Ost,Nordost",
		"location": "Bästleinstraße / Schwantesstraße",
		"town": "Leipzig",
		"gaming_devices": [
			{
				"id": 73,
				"title": "Pendel"
			}
		],
		"equipment": [
			{
				"id": 6,
				"title": "öffentliche Parkplätze vorhanden"
			}
		],
		"lines": "3",
		"stops": "Haltestelle Schwantestraße",
		"latitude": "51.3552215",
		"longitude": "12.430187"
	},
	{
		"name": "Spielplatz \"WG Sellerhausen\"",
		"district": "Sellerhausen-Stünz,Ost",
		"location": "Louis-Fürnberg-Straße / Portitzer Straße",
		"town": "Leipzig",
		"gaming_devices": [
			{
				"id": 13,
				"title": "Tischtennisplatte"
			}
		],
		"equipment": [
			{
				"id": 6,
				"title": "öffentliche Parkplätze vorhanden"
			}
		],
		"lines": "3, 77, 90",
		"stops": "Haltestelle Permoserstraße/Torgauer Straße",
		"latitude": "51.3812849",
		"longitude": "12.484402"
	},
	{
		"name": "Spielplatz \"WG Thekla\"",
		"district": "Thekla,Nordost",
		"location": "Theklaer Straße",
		"town": "Leipzig",
		"gaming_devices": [
			{
				"id": 49,
				"title": "Fussballtore"
			}
		],
		"equipment": [
			{
				"id": 6,
				"title": "öffentliche Parkplätze vorhanden"
			}
		],
		"lines": "70, 80, 83",
		"stops": "Neutzscher Straße",
		"latitude": "51.3694767",
		"longitude": "12.4254271"
	},
	{
		"name": "Spielplatz \"Wiedebachplatz\"",
		"district": "Connewitz,Süd",
		"location": "Wiedebachstraße/Bernhard-Göring-Straße",
		"town": "Leipzig",
		"gaming_devices": [
			{
				"id": 1,
				"title": "Rutsche"
			},
			{
				"id": 284,
				"title": "Drehschüssel"
			}
		],
		"equipment": [
			{
				"id": 6,
				"title": "öffentliche Parkplätze vorhanden"
			}
		],
		"lines": "10",
		"stops": "Haltestelle Wiedebachplatz",
		"latitude": "51.3195612",
		"longitude": "12.3767275"
	},
	{
		"name": "Spielplatz \"Wiesengrund\"",
		"district": "Liebertwolkwitz,Südost",
		"location": "Wiesengrund / Am Grabenweg",
		"town": "Leipzig",
		"gaming_devices": [
			{
				"id": 121,
				"title": "Federelement"
			}
		],
		"equipment": [
			{
				"id": 6,
				"title": "öffentliche Parkplätze vorhanden"
			}
		],
		"lines": "75",
		"stops": "Haltestelle Störmthaler Straße",
		"latitude": "51.2711771",
		"longitude": "12.4699251"
	},
	{
		"name": "Spielplatz \"Wilder Mann\"",
		"district": "Leutzsch,Alt-West",
		"location": "direkt im Forstgebiet \"Wilder Mann\"",
		"town": "Leipzig",
		"gaming_devices": [
			{
				"id": 1,
				"title": "Rutsche"
			},
			{
				"id": 285,
				"title": "Holzkletterdach"
			}
		],
		"equipment": [
			{
				"id": 30,
				"title": "Die öffentlichen Parkplätze befinden sich außerhalb des Forstgebietes."
			}
		],
		"lines": "67, 80",
		"stops": "Haltestelle Mathiesenstraße), 80",
		"latitude": "51.3396955",
		"longitude": "12.3730747"
	},
	{
		"name": "Spielplatz \"Wildpark - Linienkreuz\"",
		"district": "Connewitz,Süd",
		"location": "Kreuzung \"Die Neue Linie\"im Wildpark",
		"town": "Leipzig",
		"gaming_devices": [
			{
				"id": 9,
				"title": "Reck"
			}
		],
		"equipment": [
			{
				"id": 6,
				"title": "öffentliche Parkplätze vorhanden"
			}
		],
		"lines": "9, 107",
		"stops": "HaltestelleWildpark, Haltestelle Wildpark",
		"latitude": "51.3396955",
		"longitude": "12.3730747"
	},
	{
		"name": "Spielplatz \"Wildpark - Teehaus\"",
		"district": "Connewitz,Süd",
		"location": "Koburger Straße / im Wildpark",
		"town": "Leipzig",
		"gaming_devices": [
			{
				"id": 1,
				"title": "Rutsche"
			},
			{
				"id": 287,
				"title": "Klettersprossen"
			}
		],
		"equipment": [
			{
				"id": 6,
				"title": "öffentliche Parkplätze vorhanden"
			}
		],
		"lines": "9, 107",
		"stops": "Haltestelle Wildpark, Haltestelle Wildpark",
		"latitude": "51.3396955",
		"longitude": "12.3730747"
	},
	{
		"name": "Spielplatz \"Wildpark – Märchenspielplatz\"",
		"district": "Connewitz,Süd",
		"location": "Koburger Straße / im Wildpark",
		"town": "Leipzig",
		"gaming_devices": [
			{
				"id": 1,
				"title": "Rutsche"
			},
			{
				"id": 288,
				"title": "Kletterfiguren"
			}
		],
		"equipment": [
			{
				"id": 22,
				"title": "öffentliche Parkplätze sind vorhanden"
			}
		],
		"lines": "9, 107",
		"stops": "Wildpark, Wildpark",
		"latitude": "51.3396955",
		"longitude": "12.3730747"
	},
	{
		"name": "Spielplatz \"Wildpark – Waldsportplatz\"",
		"district": "Connewitz,Süd",
		"location": "Koburger Straße / im Wildpark",
		"town": "Leipzig",
		"gaming_devices": [
			{
				"id": 61,
				"title": "Streetballkorb"
			}
		],
		"equipment": [
			{
				"id": 6,
				"title": "öffentliche Parkplätze vorhanden"
			}
		],
		"lines": "9, 107",
		"stops": "Haltestelle Wildpark, Haltestelle Wildpark",
		"latitude": "51.3396955",
		"longitude": "12.3730747"
	},
	{
		"name": "Spielplatz \"Willi-Bredel-Straße\"",
		"district": "Lößnig,Süd",
		"location": "Willi-Bredel-Straße / Hans-Marchwitza-Straße",
		"town": "Leipzig",
		"gaming_devices": [
			{
				"id": 1,
				"title": "Rutsche"
			},
			{
				"id": 289,
				"title": "Tischtennis"
			}
		],
		"equipment": [
			{
				"id": 6,
				"title": "öffentliche Parkplätze vorhanden"
			}
		],
		"lines": "10, 16, 79",
		"stops": "Haltestelle Lößnig, Haltestelle Moritz-Hof",
		"latitude": "51.2998336",
		"longitude": "12.4007584"
	},
	{
		"name": "Spielplatz \"Wohnpark Seehausen\"",
		"district": "Seehausen,Nord",
		"location": "Storchenweg",
		"town": "Leipzig",
		"gaming_devices": [
			{
				"id": 1,
				"title": "Rutsche"
			}
		],
		"equipment": [
			{
				"id": 6,
				"title": "öffentliche Parkplätze vorhanden"
			}
		],
		"lines": "86",
		"stops": "Haltestelle Gut Seehausen",
		"latitude": "51.4104465",
		"longitude": "12.4181237"
	},
	{
		"name": "Spielplatz \"Zeisigplatz\"",
		"district": "Wahren,Nordwest",
		"location": "Zeisigweg",
		"town": "Leipzig",
		"gaming_devices": [
			{
				"id": 42,
				"title": "Klettersteine"
			}
		],
		"equipment": [
			{
				"id": 6,
				"title": "öffentliche Parkplätze vorhanden"
			}
		],
		"lines": "87, 88",
		"stops": "Haltestelle Zeisigweg",
		"latitude": "51.3801353",
		"longitude": "12.3317506"
	},
	{
		"name": "Spielplatz \"Zschochersche Allee\"",
		"district": "Lausen-Grünau,West",
		"location": "Zschochersche Allee",
		"town": "Leipzig",
		"gaming_devices": [
			{
				"id": 1,
				"title": "Rutsche"
			},
			{
				"id": 292,
				"title": "Balancierschiff"
			}
		],
		"equipment": [
			{
				"id": 6,
				"title": "öffentliche Parkplätze vorhanden"
			}
		],
		"lines": "1, 61, 66, 80E, 161",
		"stops": "Haltestelle Zschampertaue, Haltestelle Zschampertaue",
		"latitude": "51.3036103",
		"longitude": "12.2656362"
	},
	{
		"name": "Spielplatz \"Zum Rodelhügel\"",
		"district": "Grünau-Nord,West",
		"location": "Andromedaweg",
		"town": "Leipzig",
		"gaming_devices": [
			{
				"id": 292,
				"title": "Balancierschiff"
			}
		],
		"equipment": [
			{
				"id": 6,
				"title": "öffentliche Parkplätze vorhanden"
			}
		],
		"lines": "15, 62, 65, 66",
		"stops": "Haltestelle Plovdiver Straße, Haltestelle Plovdiver Straße",
		"latitude": "51.3191831",
		"longitude": "12.2704691"
	},
	{
		"name": "Spielplatz \"Zur Sägemühle\"",
		"district": "Böhlitz-Ehrenberg,Alt-West",
		"location": "Zur Sägemühle",
		"town": "Leipzig",
		"gaming_devices": [
			{
				"id": 4,
				"title": "Wippe"
			}
		],
		"equipment": [
			{
				"id": 6,
				"title": "öffentliche Parkplätze vorhanden"
			}
		],
		"lines": "7, 62",
		"stops": "Haltestelle Südstraße, Haltestelle Südstraße",
		"latitude": "51.3619139",
		"longitude": "12.2906763"
	},
	{
		"name": "Spielplatz \"Zusestraße\"",
		"district": "Böhlitz-Ehrenberg,Alt-West",
		"location": "Zusestraße",
		"town": "Leipzig",
		"gaming_devices": [
			{
				"id": 10,
				"title": "Kletternetz"
			}
		],
		"equipment": [
			{
				"id": 6,
				"title": "öffentliche Parkplätze vorhanden"
			}
		],
		"lines": "7",
		"stops": "Haltestelle Barneckerstraße",
		"latitude": "51.3574366",
		"longitude": "12.3022363"
	},
	{
		"name": "Spielplatz \"Garskestraße\"",
		"district": "West,Schönau",
		"location": "Garskestraße/ Stuttgarter Allee",
		"town": "Leipzig",
		"gaming_devices": [
			{
				"id": 10,
				"title": "Kletternetz"
			}
		],
		"equipment": [
			{
				"id": 22,
				"title": "öffentliche Parkplätze sind vorhanden"
			}
		],
		"lines": "65, 80E, 61, 66, 161, 8, 15",
		"stops": "Haltestelle Schönauer Ring, Haltestelle Schönauer Ring",
		"latitude": "51.3185448",
		"longitude": "12.2904345"
	},
	{
		"name": "Spielplatz \"Leopoldstraße\"",
		"district": "Süd,Connewitz",
		"location": "Leopoldstraße",
		"town": "Leipzig",
		"gaming_devices": [
			{
				"id": 60,
				"title": "Tischtennisplatten"
			}
		],
		"equipment": [
			{
				"id": 22,
				"title": "öffentliche Parkplätze sind vorhanden"
			}
		],
		"lines": "107, 9",
		"stops": "Haltestelle Mathildenstraße, Haltestelle Mathildenstraße",
		"latitude": "51.3059788",
		"longitude": "12.3773369"
	},
	{
		"name": "Spielplatz \"Plagwitzer Bahnhof\"",
		"district": "Südwest,Plagwitz",
		"location": "Naumburger Straße",
		"town": "Leipzig",
		"gaming_devices": [
			{
				"id": 42,
				"title": "Klettersteine"
			}
		],
		"equipment": [
			{
				"id": 22,
				"title": "öffentliche Parkplätze sind vorhanden"
			}
		],
		"lines": "14, 60",
		"stops": "Haltestelle S-Bahnhof Plagwitz), Haltestelle Naumburger Straße",
		"latitude": "51.3266241",
		"longitude": "12.3286076"
	},
	{
		"name": "Spielplatz 'An der Schäferei' im Erholungspark Lößnig-Dölitz",
		"district": "Lößnig,Süd",
		"location": "Siegfriedstraße / im Park",
		"town": "Leipzig",
		"gaming_devices": [
			{
				"id": 1,
				"title": "Rutsche"
			},
			{
				"id": 295,
				"title": "Schäfer und Schafe"
			}
		],
		"equipment": [
			{
				"id": 6,
				"title": "öffentliche Parkplätze vorhanden"
			}
		],
		"lines": "10, 16, 79",
		"stops": "Haltestelle Lößnig, Haltestelle Moritz-Hof",
		"latitude": "51.296411",
		"longitude": "12.401118"
	},
	{
		"name": "Spielplatz 'Fröbelplatz' im Erholungspark Lößnig-Dölitz",
		"district": "Lößnig,Süd",
		"location": "Siegfriedstraße / im Park",
		"town": "Leipzig",
		"gaming_devices": [
			{
				"id": 1,
				"title": "Rutsche"
			},
			{
				"id": 297,
				"title": "Balancierhölzer"
			}
		],
		"equipment": [
			{
				"id": 6,
				"title": "öffentliche Parkplätze vorhanden"
			}
		],
		"lines": "10, 16, 79",
		"stops": "Haltestelle Lößnig, Haltestelle Moritz-Hof",
		"latitude": "51.297692",
		"longitude": "12.40466"
	},
	{
		"name": "Spielplatz 'Kletterplatz' im Erholungspark Lößnig-Dölitz",
		"district": "Lößnig,Süd",
		"location": "nördlich der Siegfriedstraße / im Park",
		"town": "Leipzig",
		"gaming_devices": [
			{
				"id": 2,
				"title": "Doppelschaukel"
			}
		],
		"equipment": [
			{
				"id": 6,
				"title": "öffentliche Parkplätze vorhanden"
			}
		],
		"lines": "10, 16, 79",
		"stops": "Haltestelle Lößnig, Haltestelle Moritz-Hof",
		"latitude": "51.298127",
		"longitude": "12.405846"
	},
	{
		"name": "Spielplatz 'Kugelplatz' im Erholungspark Lößnig-Dölitz",
		"district": "Lößnig,Süd",
		"location": "nördlich der Siegfriedstraße / im Park",
		"town": "Leipzig",
		"gaming_devices": [
			{
				"id": 1,
				"title": "Rutsche"
			},
			{
				"id": 299,
				"title": "Kletterkugeln"
			}
		],
		"equipment": [
			{
				"id": 6,
				"title": "öffentliche Parkplätze vorhanden"
			}
		],
		"lines": "10, 16, 79",
		"stops": "Haltestelle Lößnig, Haltestelle Moritz-Hof",
		"latitude": "51.298487",
		"longitude": "12.40599"
	},
	{
		"name": "Spielplatz 'Rollerbahn' im Erholungspark Lößnig-Dölitz",
		"district": "Lößnig,Süd",
		"location": "Zum Förderturm / im Park",
		"town": "Leipzig",
		"gaming_devices": [
			{
				"id": 1,
				"title": "Rutsche"
			},
			{
				"id": 300,
				"title": "Rollerbahn"
			}
		],
		"equipment": [
			{
				"id": 6,
				"title": "öffentliche Parkplätze vorhanden"
			}
		],
		"lines": "10, 16, 79",
		"stops": "Haltestelle Lößnig, Haltestelle Moritz-Hof",
		"latitude": "51.294519",
		"longitude": "12.405472"
	},
	{
		"name": "Spielplatz 'Tischtennisplatz' im Erholungspark Lößnig-Dölitz",
		"district": "Lößnig,Süd",
		"location": "nördlich der Siegfriedstaße / im Park",
		"town": "Leipzig",
		"gaming_devices": [
			{
				"id": 60,
				"title": "Tischtennisplatten"
			}
		],
		"equipment": [
			{
				"id": 6,
				"title": "öffentliche Parkplätze vorhanden"
			}
		],
		"lines": "10, 16, 79",
		"stops": "Haltestelle Lößnig, Haltestelle Moritz-Hof",
		"latitude": "51.297437",
		"longitude": "12.401811"
	},
	{
		"name": "Spielplatz Karlsruher Straße - Alte Salzstraße – \"Kletterplatz\"",
		"district": "Grünau-Mitte,West",
		"location": "Karlsruher Straße / Alte Salzstraße",
		"town": "Leipzig",
		"gaming_devices": [
			{
				"id": 282,
				"title": "Doppelrutsche"
			}
		],
		"equipment": [
			{
				"id": 6,
				"title": "öffentliche Parkplätze vorhanden"
			}
		],
		"lines": "61, 66, 80E, 161",
		"stops": "Haltestelle Alte Salzstraße",
		"latitude": "51.3396955",
		"longitude": "12.3730747"
	},
	{
		"name": "Spielplatz Karlsruher Straße - Alte Salzstraße – ''Kleiner Kletterplatz''\"",
		"district": "Grünau-Mitte,West",
		"location": "Karlsruher Straße / Alte Salzstraße",
		"town": "Leipzig",
		"gaming_devices": [
			{
				"id": 84,
				"title": "Flüsterkugel"
			}
		],
		"equipment": [
			{
				"id": 6,
				"title": "öffentliche Parkplätze vorhanden"
			}
		],
		"lines": "61, 80E, 161",
		"stops": "Haltestelle Karlsruher Straße",
		"latitude": "51.3396955",
		"longitude": "12.3730747"
	},
	{
		"name": "Spielplatz „Kletterplatz im Arthur-Bretschneider-Park\"",
		"district": "Eutritzsch,Nord",
		"location": "Kleiststraße / Gottschallstraße",
		"town": "Leipzig",
		"gaming_devices": [
			{
				"id": 243,
				"title": "Raumkletternetz"
			}
		],
		"equipment": [
			{
				"id": 6,
				"title": "öffentliche Parkplätze vorhanden"
			}
		],
		"lines": "12, 16, 85",
		"stops": "Haltestelle Gottschallstraße, Haltestelle Eutritzscher Markt",
		"latitude": "51.3684595",
		"longitude": "12.3787576"
	}
]
